[{"calling_no":"0","device_id":"697225d6-25d6-b69b-0cf5-3373e6da36aa","location_latitude":"33.828094","usage_date":"1646166575000","call_bdate":"0","called_no":"0","location_name":"Mattresses  Computer Engineer UY","service_provider_id":"9","location_accuracy":"11.9","usage_timeframe":"1646166575000","shape_id":0,"call_edate":"0","location_longitude":"35.506424"}, {"calling_no":"0","device_id":"4321F379-F379-C9EF-30EC-592669F6E3C0","location_latitude":"33.825447","usage_date":"1647321559000","call_bdate":"0","called_no":"0","location_name":"Furnished  Merchant VN","service_provider_id":"9","location_accuracy":"9.0","usage_timeframe":"1647321559000","shape_id":0,"call_edate":"0","location_longitude":"35.506485"}, {"calling_no":"0","device_id":"4321F379-F379-C9EF-30EC-592669F6E3C0","location_latitude":"33.824753","usage_date":"1647925788000","call_bdate":"0","called_no":"0","location_name":"Furnished  Merchant VN","service_provider_id":"9","location_accuracy":"10.0","usage_timeframe":"1647925788000","shape_id":0,"call_edate":"0","location_longitude":"35.505116"}, {"calling_no":"0","device_id":"E01FA75A-A75A-0E5F-84C6-6F0F5D9822C7","location_latitude":"33.827545","usage_date":"1648059351000","call_bdate":"0","called_no":"0","location_name":"Conventional  Unemployed UY","service_provider_id":"9","location_accuracy":"14.0","usage_timeframe":"1648059351000","shape_id":0,"call_edate":"0","location_longitude":"35.505777"}, {"calling_no":"0","device_id":"fc4ec8be-8fe9-4c1f-c2bc-6f25fe61cc58","location_latitude":"33.8299553","usage_date":"1644950000000","call_bdate":"0","called_no":"0","location_name":"Grace Yellow DB","service_provider_id":"9","usage_timeframe":"1644950000000","shape_id":0,"usage_timeline":"1644950000000","call_edate":"0","location_longitude":"35.5024043"}, {"calling_no":"0","device_id":"fc4ec8be-8fe9-4c1f-c2bc-6f25fe61cc58","location_latitude":"33.8299553","usage_date":"1644952589000","call_bdate":"0","called_no":"0","location_name":"Grace Yellow DB","service_provider_id":"9","usage_timeframe":"1644952589000","shape_id":0,"usage_timeline":"1644952589000","call_edate":"0","location_longitude":"35.5024043"}, {"calling_no":"0","device_id":"fc4ec8be-8fe9-4c1f-c2bc-6f25fe61cc58","location_latitude":"33.82782509","usage_date":"1651350000000","call_bdate":"0","called_no":"0","location_name":"Grace Yellow DB","service_provider_id":"9","usage_timeframe":"1651350000000","shape_id":0,"usage_timeline":"1651350000000","call_edate":"0","location_longitude":"35.50745654"}, {"calling_no":"0","device_id":"fc4ec8be-8fe9-4c1f-c2bc-6f25fe61cc58","location_latitude":"33.82782509","usage_date":"1651350967000","call_bdate":"0","called_no":"0","location_name":"Grace Yellow DB","service_provider_id":"9","usage_timeframe":"1651350967000","shape_id":0,"usage_timeline":"1651350967000","call_edate":"0","location_longitude":"35.50745654"}, {"calling_no":"0","device_id":"fc4ec8be-8fe9-4c1f-c2bc-6f25fe61cc58","location_latitude":"33.82895644","usage_date":"1651917144000","call_bdate":"0","called_no":"0","location_name":"Grace Yellow DB","service_provider_id":"9","usage_timeframe":"1651917144000","shape_id":0,"usage_timeline":"1651917144000","call_edate":"0","location_longitude":"35.50717414"}, {"calling_no":"0","device_id":"fc4ec8be-8fe9-4c1f-c2bc-6f25fe61cc58","location_latitude":"33.82895644","usage_date":"1651920000000","call_bdate":"0","called_no":"0","location_name":"Grace Yellow DB","service_provider_id":"9","usage_timeframe":"1651920000000","shape_id":0,"usage_timeline":"1651920000000","call_edate":"0","location_longitude":"35.50717414"}, {"calling_no":"0","device_id":"7e2e17ae-562f-4613-a80d-921b519ed37f","location_latitude":"33.826815","usage_date":"1667203818000","call_bdate":"0","called_no":"0","location_name":"Ducts","service_provider_id":"9","location_accuracy":"12.0","usage_timeframe":"1667203818000","shape_id":0,"call_edate":"0","location_longitude":"35.505081"}, {"calling_no":"0","device_id":"7e2e17ae-562f-4613-a80d-921b519ed37f","location_latitude":"33.82707","usage_date":"1667205883000","call_bdate":"0","called_no":"0","location_name":"Ducts","service_provider_id":"9","location_accuracy":"6.0","usage_timeframe":"1667205883000","shape_id":0,"call_edate":"0","location_longitude":"35.505386"}, {"calling_no":"0","device_id":"67640e4b-0e4b-b517-01b2-76501d1f76d7","location_latitude":"33.827892","usage_date":"1648051104000","call_bdate":"0","called_no":"0","location_name":"Restaurants  Labor AR","service_provider_id":"9","location_accuracy":"11.5","usage_timeframe":"1648051104000","shape_id":0,"call_edate":"0","location_longitude":"35.503746"}, {"calling_no":"0","device_id":"67640e4b-0e4b-b517-01b2-76501d1f76d7","location_latitude":"33.827892","usage_date":"1648057474000","call_bdate":"0","called_no":"0","location_name":"Restaurants  Labor AR","service_provider_id":"9","location_accuracy":"11.5","usage_timeframe":"1648057474000","shape_id":0,"call_edate":"0","location_longitude":"35.503746"}, {"calling_no":"0","device_id":"93ddc8ed-8b94-43c6-8938-56d8e3c22811","location_latitude":"33.82901997","usage_date":"1656579318000","call_bdate":"0","called_no":"0","location_name":"Henry Black GA","service_provider_id":"9","usage_timeframe":"1656579318000","shape_id":0,"usage_timeline":"1656579318000","call_edate":"0","location_longitude":"35.50292814"}, {"calling_no":"0","device_id":"93ddc8ed-8b94-43c6-8938-56d8e3c22811","location_latitude":"33.82901997","usage_date":"1656580000000","call_bdate":"0","called_no":"0","location_name":"Henry Black GA","service_provider_id":"9","usage_timeframe":"1656580000000","shape_id":0,"usage_timeline":"1656580000000","call_edate":"0","location_longitude":"35.50292814"}, {"calling_no":"0","device_id":"D8C3D51E-5A4C-4E7A-9438-F03B40C469B8","location_latitude":"33.82641","usage_date":"1665050917000","call_bdate":"0","called_no":"0","location_name":"Olive  Coach UY","service_provider_id":"9","location_accuracy":"15.0","usage_timeframe":"1665050917000","shape_id":0,"call_edate":"0","location_longitude":"35.50459"}, {"calling_no":"0","device_id":"D8C3D51E-5A4C-4E7A-9438-F03B40C469B8","location_latitude":"33.82642","usage_date":"1665050927000","call_bdate":"0","called_no":"0","location_name":"Olive  Coach UY","service_provider_id":"9","location_accuracy":"15.0","usage_timeframe":"1665050927000","shape_id":0,"call_edate":"0","location_longitude":"35.504597"}, {"calling_no":"0","device_id":"64c52a5b-2a5b-e9b3-7956-8a7affd11e71","location_latitude":"33.824558","usage_date":"1648460638000","call_bdate":"0","called_no":"0","location_name":"Lingerie Bartender UY","service_provider_id":"9","location_accuracy":"11.8","usage_timeframe":"1648460638000","shape_id":0,"call_edate":"0","location_longitude":"35.503681"}, {"calling_no":"0","device_id":"0420783e-783e-1fb6-1196-537f9a58acbd","location_latitude":"33.826279","usage_date":"1647006245000","call_bdate":"0","called_no":"0","location_name":"Caoutchouc  Administrator UY","service_provider_id":"9","location_accuracy":"12.9","usage_timeframe":"1647006245000","shape_id":0,"call_edate":"0","location_longitude":"35.50518"}, {"calling_no":"0","device_id":"0420783e-783e-1fb6-1196-537f9a58acbd","location_latitude":"33.826279","usage_date":"1647548157000","call_bdate":"0","called_no":"0","location_name":"Caoutchouc  Administrator UY","service_provider_id":"9","location_accuracy":"10.9","usage_timeframe":"1647548157000","shape_id":0,"call_edate":"0","location_longitude":"35.50518"}, {"calling_no":"0","device_id":"0420783e-783e-1fb6-1196-537f9a58acbd","location_latitude":"33.826279","usage_date":"1648392030000","call_bdate":"0","called_no":"0","location_name":"Caoutchouc  Administrator UY","service_provider_id":"9","location_accuracy":"10.9","usage_timeframe":"1648392030000","shape_id":0,"call_edate":"0","location_longitude":"35.50518"}, {"calling_no":"0","device_id":"234d6383-6383-77d3-23ae-64b673612625","location_latitude":"33.824219","usage_date":"1647890533000","call_bdate":"0","called_no":"0","location_name":"Automated  Secretary BB","service_provider_id":"9","location_accuracy":"8.6","usage_timeframe":"1647890533000","shape_id":0,"call_edate":"0","location_longitude":"35.503448"}, {"calling_no":"0","device_id":"2b30f40a-8527-45cd-9828-038a8f0f5913","location_latitude":"33.8247132","usage_date":"1648553673370","call_bdate":"0","called_no":"0","location_name":"Rugs Electrical Engineer VN","service_provider_id":"9","location_accuracy":"17.379","usage_timeframe":"1648553673370","shape_id":0,"call_edate":"0","location_longitude":"35.5053471"}, {"calling_no":"0","device_id":"2b30f40a-8527-45cd-9828-038a8f0f5913","location_latitude":"33.82648","usage_date":"1665506905000","call_bdate":"0","called_no":"0","location_name":"Rugs Electrical Engineer VN","service_provider_id":"9","location_accuracy":"20.0","usage_timeframe":"1665506905000","shape_id":0,"call_edate":"0","location_longitude":"35.50725"}, {"calling_no":"0","device_id":"2b30f40a-8527-45cd-9828-038a8f0f5913","location_latitude":"33.826492","usage_date":"1665592230000","call_bdate":"0","called_no":"0","location_name":"Rugs Electrical Engineer VN","service_provider_id":"9","location_accuracy":"24.0","usage_timeframe":"1665592230000","shape_id":0,"call_edate":"0","location_longitude":"35.50725"}, {"calling_no":"0","device_id":"2b30f40a-8527-45cd-9828-038a8f0f5913","location_latitude":"33.82649","usage_date":"1665592245000","call_bdate":"0","called_no":"0","location_name":"Rugs Electrical Engineer VN","service_provider_id":"9","location_accuracy":"23.6","usage_timeframe":"1665592245000","shape_id":0,"call_edate":"0","location_longitude":"35.50726"}, {"calling_no":"0","device_id":"2b30f40a-8527-45cd-9828-038a8f0f5913","location_latitude":"33.82649","usage_date":"1665592293000","call_bdate":"0","called_no":"0","location_name":"Rugs Electrical Engineer VN","service_provider_id":"9","location_accuracy":"20.0","usage_timeframe":"1665592293000","shape_id":0,"call_edate":"0","location_longitude":"35.50725"}, {"calling_no":"0","device_id":"2b30f40a-8527-45cd-9828-038a8f0f5913","location_latitude":"33.82649","usage_date":"1665594608000","call_bdate":"0","called_no":"0","location_name":"Rugs Electrical Engineer VN","service_provider_id":"9","location_accuracy":"20.0","usage_timeframe":"1665594608000","shape_id":0,"call_edate":"0","location_longitude":"35.50725"}, {"calling_no":"0","device_id":"2b30f40a-8527-45cd-9828-038a8f0f5913","location_latitude":"33.82649","usage_date":"1665594658000","call_bdate":"0","called_no":"0","location_name":"Rugs Electrical Engineer VN","service_provider_id":"9","location_accuracy":"20.0","usage_timeframe":"1665594658000","shape_id":0,"call_edate":"0","location_longitude":"35.50726"}, {"calling_no":"0","device_id":"2b30f40a-8527-45cd-9828-038a8f0f5913","location_latitude":"33.82647","usage_date":"1666024508000","call_bdate":"0","called_no":"0","location_name":"Rugs Electrical Engineer VN","service_provider_id":"9","location_accuracy":"20.0","usage_timeframe":"1666024508000","shape_id":0,"call_edate":"0","location_longitude":"35.50725"}, {"calling_no":"0","device_id":"2b30f40a-8527-45cd-9828-038a8f0f5913","location_latitude":"33.82647","usage_date":"1666024558000","call_bdate":"0","called_no":"0","location_name":"Rugs Electrical Engineer VN","service_provider_id":"9","location_accuracy":"20.0","usage_timeframe":"1666024558000","shape_id":0,"call_edate":"0","location_longitude":"35.50726"}, {"calling_no":"0","device_id":"2b30f40a-8527-45cd-9828-038a8f0f5913","location_latitude":"33.82647","usage_date":"1666026310000","call_bdate":"0","called_no":"0","location_name":"Rugs Electrical Engineer VN","service_provider_id":"9","location_accuracy":"20.0","usage_timeframe":"1666026310000","shape_id":0,"call_edate":"0","location_longitude":"35.50726"}, {"calling_no":"0","device_id":"2b30f40a-8527-45cd-9828-038a8f0f5913","location_latitude":"33.82647","usage_date":"1666026325000","call_bdate":"0","called_no":"0","location_name":"Rugs Electrical Engineer VN","service_provider_id":"9","location_accuracy":"20.0","usage_timeframe":"1666026325000","shape_id":0,"call_edate":"0","location_longitude":"35.50725"}, {"calling_no":"0","device_id":"2b30f40a-8527-45cd-9828-038a8f0f5913","location_latitude":"33.826485","usage_date":"1666034104000","call_bdate":"0","called_no":"0","location_name":"Rugs Electrical Engineer VN","service_provider_id":"9","location_accuracy":"20.0","usage_timeframe":"1666034104000","shape_id":0,"call_edate":"0","location_longitude":"35.507263"}, {"calling_no":"0","device_id":"2b30f40a-8527-45cd-9828-038a8f0f5913","location_latitude":"33.82647","usage_date":"1666034153000","call_bdate":"0","called_no":"0","location_name":"Rugs Electrical Engineer VN","service_provider_id":"9","location_accuracy":"20.0","usage_timeframe":"1666034153000","shape_id":0,"call_edate":"0","location_longitude":"35.50725"}, {"calling_no":"0","device_id":"2b30f40a-8527-45cd-9828-038a8f0f5913","location_latitude":"33.82647","usage_date":"1666096507000","call_bdate":"0","called_no":"0","location_name":"Rugs Electrical Engineer VN","service_provider_id":"9","location_accuracy":"20.0","usage_timeframe":"1666096507000","shape_id":0,"call_edate":"0","location_longitude":"35.50726"}, {"calling_no":"0","device_id":"2b30f40a-8527-45cd-9828-038a8f0f5913","location_latitude":"33.826485","usage_date":"1666096518000","call_bdate":"0","called_no":"0","location_name":"Rugs Electrical Engineer VN","service_provider_id":"9","location_accuracy":"20.0","usage_timeframe":"1666096518000","shape_id":0,"call_edate":"0","location_longitude":"35.507263"}, {"calling_no":"0","device_id":"2b30f40a-8527-45cd-9828-038a8f0f5913","location_latitude":"33.82647","usage_date":"1666096528000","call_bdate":"0","called_no":"0","location_name":"Rugs Electrical Engineer VN","service_provider_id":"9","location_accuracy":"20.0","usage_timeframe":"1666096528000","shape_id":0,"call_edate":"0","location_longitude":"35.50725"}, {"calling_no":"0","device_id":"2b30f40a-8527-45cd-9828-038a8f0f5913","location_latitude":"33.82647","usage_date":"1666096557000","call_bdate":"0","called_no":"0","location_name":"Rugs Electrical Engineer VN","service_provider_id":"9","location_accuracy":"20.0","usage_timeframe":"1666096557000","shape_id":0,"call_edate":"0","location_longitude":"35.50725"}, {"calling_no":"0","device_id":"2b30f40a-8527-45cd-9828-038a8f0f5913","location_latitude":"33.82648","usage_date":"1666110158000","call_bdate":"0","called_no":"0","location_name":"Rugs Electrical Engineer VN","service_provider_id":"9","location_accuracy":"20.0","usage_timeframe":"1666110158000","shape_id":0,"call_edate":"0","location_longitude":"35.507263"}, {"calling_no":"0","device_id":"2b30f40a-8527-45cd-9828-038a8f0f5913","location_latitude":"33.82647","usage_date":"1666110168000","call_bdate":"0","called_no":"0","location_name":"Rugs Electrical Engineer VN","service_provider_id":"9","location_accuracy":"20.0","usage_timeframe":"1666110168000","shape_id":0,"call_edate":"0","location_longitude":"35.50725"}, {"calling_no":"0","device_id":"2b30f40a-8527-45cd-9828-038a8f0f5913","location_latitude":"33.82648","usage_date":"1666113067000","call_bdate":"0","called_no":"0","location_name":"Rugs Electrical Engineer VN","service_provider_id":"9","location_accuracy":"20.0","usage_timeframe":"1666113067000","shape_id":0,"call_edate":"0","location_longitude":"35.507263"}, {"calling_no":"0","device_id":"2b30f40a-8527-45cd-9828-038a8f0f5913","location_latitude":"33.826485","usage_date":"1666113101000","call_bdate":"0","called_no":"0","location_name":"Rugs Electrical Engineer VN","service_provider_id":"9","location_accuracy":"20.0","usage_timeframe":"1666113101000","shape_id":0,"call_edate":"0","location_longitude":"35.507256"}, {"calling_no":"0","device_id":"2b30f40a-8527-45cd-9828-038a8f0f5913","location_latitude":"33.82647","usage_date":"1666113117000","call_bdate":"0","called_no":"0","location_name":"Rugs Electrical Engineer VN","service_provider_id":"9","location_accuracy":"20.0","usage_timeframe":"1666113117000","shape_id":0,"call_edate":"0","location_longitude":"35.50725"}, {"calling_no":"0","device_id":"2b30f40a-8527-45cd-9828-038a8f0f5913","location_latitude":"33.82647","usage_date":"1666171695000","call_bdate":"0","called_no":"0","location_name":"Rugs Electrical Engineer VN","service_provider_id":"9","location_accuracy":"20.0","usage_timeframe":"1666171695000","shape_id":0,"call_edate":"0","location_longitude":"35.50726"}, {"calling_no":"0","device_id":"2b30f40a-8527-45cd-9828-038a8f0f5913","location_latitude":"33.826485","usage_date":"1666171700000","call_bdate":"0","called_no":"0","location_name":"Rugs Electrical Engineer VN","service_provider_id":"9","location_accuracy":"20.0","usage_timeframe":"1666171700000","shape_id":0,"call_edate":"0","location_longitude":"35.507256"}, {"calling_no":"0","device_id":"2b30f40a-8527-45cd-9828-038a8f0f5913","location_latitude":"33.82647","usage_date":"1666172174000","call_bdate":"0","called_no":"0","location_name":"Rugs Electrical Engineer VN","service_provider_id":"9","location_accuracy":"20.0","usage_timeframe":"1666172174000","shape_id":0,"call_edate":"0","location_longitude":"35.50725"}, {"calling_no":"0","device_id":"2b30f40a-8527-45cd-9828-038a8f0f5913","location_latitude":"33.82647","usage_date":"1666172183000","call_bdate":"0","called_no":"0","location_name":"Rugs Electrical Engineer VN","service_provider_id":"9","location_accuracy":"20.0","usage_timeframe":"1666172183000","shape_id":0,"call_edate":"0","location_longitude":"35.50726"}, {"calling_no":"0","device_id":"2b30f40a-8527-45cd-9828-038a8f0f5913","location_latitude":"33.826485","usage_date":"1666174024000","call_bdate":"0","called_no":"0","location_name":"Rugs Electrical Engineer VN","service_provider_id":"9","location_accuracy":"20.0","usage_timeframe":"1666174024000","shape_id":0,"call_edate":"0","location_longitude":"35.507256"}, {"calling_no":"0","device_id":"d80830bc-30bc-f6ae-c099-7fe078d66f99","location_latitude":"33.8246","usage_date":"1647623622000","call_bdate":"0","called_no":"0","location_name":"Airplane  Banker UY","service_provider_id":"9","location_accuracy":"22.9","usage_timeframe":"1647623622000","shape_id":0,"call_edate":"0","location_longitude":"35.502975"}, {"calling_no":"0","device_id":"65f30f80-0f80-be53-ef15-bfb7084fa266","location_latitude":"33.825199","usage_date":"1647189752000","call_bdate":"0","called_no":"0","location_name":"Carpentry Car Trader BB","service_provider_id":"9","location_accuracy":"11.6","usage_timeframe":"1647189752000","shape_id":0,"call_edate":"0","location_longitude":"35.503597"}, {"calling_no":"0","device_id":"65f30f80-0f80-be53-ef15-bfb7084fa266","location_latitude":"33.828125","usage_date":"1647201935000","call_bdate":"0","called_no":"0","location_name":"Carpentry Car Trader BB","service_provider_id":"9","location_accuracy":"9.6","usage_timeframe":"1647201935000","shape_id":0,"call_edate":"0","location_longitude":"35.503788"}, {"calling_no":"0","device_id":"65f30f80-0f80-be53-ef15-bfb7084fa266","location_latitude":"33.824512","usage_date":"1647201961000","call_bdate":"0","called_no":"0","location_name":"Carpentry Car Trader BB","service_provider_id":"9","location_accuracy":"9.6","usage_timeframe":"1647201961000","shape_id":0,"call_edate":"0","location_longitude":"35.503941"}, {"calling_no":"0","device_id":"06896B41-6B41-44EF-8ED2-EAB3FEB7DD23","location_latitude":"33.825172","usage_date":"1647984389000","call_bdate":"0","called_no":"0","location_name":"Alunimum Plumber WF","service_provider_id":"9","location_accuracy":"9.8","usage_timeframe":"1647984389000","shape_id":0,"call_edate":"0","location_longitude":"35.506443"}, {"calling_no":"0","device_id":"924388fd-533c-40bd-a0d0-f2603b043d8c","location_latitude":"33.82776","usage_date":"1665851278000","call_bdate":"0","called_no":"0","location_name":"Restaurants  Insurance Employee AT","service_provider_id":"9","location_accuracy":"19.0","usage_timeframe":"1665851278000","shape_id":0,"call_edate":"0","location_longitude":"35.50665"}, {"calling_no":"0","device_id":"924388fd-533c-40bd-a0d0-f2603b043d8c","location_latitude":"33.827763","usage_date":"1665851662000","call_bdate":"0","called_no":"0","location_name":"Restaurants  Insurance Employee AT","service_provider_id":"9","location_accuracy":"19.0","usage_timeframe":"1665851662000","shape_id":0,"call_edate":"0","location_longitude":"35.506653"}, {"calling_no":"0","device_id":"924388fd-533c-40bd-a0d0-f2603b043d8c","location_latitude":"33.82773","usage_date":"1665851680000","call_bdate":"0","called_no":"0","location_name":"Restaurants  Insurance Employee AT","service_provider_id":"9","location_accuracy":"13.0","usage_timeframe":"1665851680000","shape_id":0,"call_edate":"0","location_longitude":"35.50654"}, {"calling_no":"0","device_id":"924388fd-533c-40bd-a0d0-f2603b043d8c","location_latitude":"33.82773","usage_date":"1665870277000","call_bdate":"0","called_no":"0","location_name":"Restaurants  Insurance Employee AT","service_provider_id":"9","location_accuracy":"13.0","usage_timeframe":"1665870277000","shape_id":0,"call_edate":"0","location_longitude":"35.50654"}, {"calling_no":"0","device_id":"924388fd-533c-40bd-a0d0-f2603b043d8c","location_latitude":"33.82773","usage_date":"1665870292000","call_bdate":"0","called_no":"0","location_name":"Restaurants  Insurance Employee AT","service_provider_id":"9","location_accuracy":"13.0","usage_timeframe":"1665870292000","shape_id":0,"call_edate":"0","location_longitude":"35.50654"}, {"calling_no":"0","device_id":"924388fd-533c-40bd-a0d0-f2603b043d8c","location_latitude":"33.82773","usage_date":"1665937671000","call_bdate":"0","called_no":"0","location_name":"Restaurants  Insurance Employee AT","service_provider_id":"9","location_accuracy":"13.0","usage_timeframe":"1665937671000","shape_id":0,"call_edate":"0","location_longitude":"35.50654"}, {"calling_no":"0","device_id":"924388fd-533c-40bd-a0d0-f2603b043d8c","location_latitude":"33.82773","usage_date":"1665943584000","call_bdate":"0","called_no":"0","location_name":"Restaurants  Insurance Employee AT","service_provider_id":"9","location_accuracy":"13.0","usage_timeframe":"1665943584000","shape_id":0,"call_edate":"0","location_longitude":"35.50654"}, {"calling_no":"0","device_id":"924388fd-533c-40bd-a0d0-f2603b043d8c","location_latitude":"33.82733","usage_date":"1666002578000","call_bdate":"0","called_no":"0","location_name":"Restaurants  Insurance Employee AT","service_provider_id":"9","location_accuracy":"9.0","usage_timeframe":"1666002578000","shape_id":0,"call_edate":"0","location_longitude":"35.506153"}, {"calling_no":"0","device_id":"924388fd-533c-40bd-a0d0-f2603b043d8c","location_latitude":"33.82779","usage_date":"1666232895000","call_bdate":"0","called_no":"0","location_name":"Restaurants  Insurance Employee AT","service_provider_id":"9","location_accuracy":"15.0","usage_timeframe":"1666232895000","shape_id":0,"call_edate":"0","location_longitude":"35.50663"}, {"calling_no":"0","device_id":"924388fd-533c-40bd-a0d0-f2603b043d8c","location_latitude":"33.8278","usage_date":"1666305211000","call_bdate":"0","called_no":"0","location_name":"Restaurants  Insurance Employee AT","service_provider_id":"9","location_accuracy":"15.624","usage_timeframe":"1666305211000","shape_id":0,"call_edate":"0","location_longitude":"35.506634"}, {"calling_no":"0","device_id":"924388fd-533c-40bd-a0d0-f2603b043d8c","location_latitude":"33.82779","usage_date":"1666305227000","call_bdate":"0","called_no":"0","location_name":"Restaurants  Insurance Employee AT","service_provider_id":"9","location_accuracy":"16.0","usage_timeframe":"1666305227000","shape_id":0,"call_edate":"0","location_longitude":"35.50663"}, {"calling_no":"0","device_id":"924388fd-533c-40bd-a0d0-f2603b043d8c","location_latitude":"33.8278","usage_date":"1666370641000","call_bdate":"0","called_no":"0","location_name":"Restaurants  Insurance Employee AT","service_provider_id":"9","location_accuracy":"16.0","usage_timeframe":"1666370641000","shape_id":0,"call_edate":"0","location_longitude":"35.506634"}, {"calling_no":"0","device_id":"e5d91b2b-1b2b-b3e5-6a27-49d9329e4ee3","location_latitude":"33.828125","usage_date":"1647202169000","call_bdate":"0","called_no":"0","location_name":"Speculators Carpenter AR","service_provider_id":"9","location_accuracy":"12.5","usage_timeframe":"1647202169000","shape_id":0,"call_edate":"0","location_longitude":"35.503788"}, {"calling_no":"0","device_id":"cdc4481d-8866-4242-b3f6-832b939bbcc5","location_latitude":"33.82929715","usage_date":"1651508158000","call_bdate":"0","called_no":"0","location_name":"Jenny Purple AR","service_provider_id":"9","usage_timeframe":"1651508158000","shape_id":0,"usage_timeline":"1651508158000","call_edate":"0","location_longitude":"35.50719864"}, {"calling_no":"0","device_id":"cdc4481d-8866-4242-b3f6-832b939bbcc5","location_latitude":"33.82929715","usage_date":"1651510000000","call_bdate":"0","called_no":"0","location_name":"Jenny Purple AR","service_provider_id":"9","usage_timeframe":"1651510000000","shape_id":0,"usage_timeline":"1651510000000","call_edate":"0","location_longitude":"35.50719864"}, {"calling_no":"0","device_id":"cdc4481d-8866-4242-b3f6-832b939bbcc5","location_latitude":"33.8277778","usage_date":"1655370000000","call_bdate":"0","called_no":"0","location_name":"Jenny Purple AR","service_provider_id":"9","usage_timeframe":"1655370000000","shape_id":0,"usage_timeline":"1655370000000","call_edate":"0","location_longitude":"35.50643827"}, {"calling_no":"0","device_id":"cdc4481d-8866-4242-b3f6-832b939bbcc5","location_latitude":"33.8277778","usage_date":"1655372669000","call_bdate":"0","called_no":"0","location_name":"Jenny Purple AR","service_provider_id":"9","usage_timeframe":"1655372669000","shape_id":0,"usage_timeline":"1655372669000","call_edate":"0","location_longitude":"35.50643827"}, {"calling_no":"0","device_id":"e9713ecb-ca48-4e65-889b-6742c45dd27f","location_latitude":"33.826565","usage_date":"1664729003000","call_bdate":"0","called_no":"0","location_name":"Clothing  Computer Programmer VN","service_provider_id":"9","location_accuracy":"16.167","usage_timeframe":"1664729003000","shape_id":0,"call_edate":"0","location_longitude":"35.50728"}, {"calling_no":"0","device_id":"e9713ecb-ca48-4e65-889b-6742c45dd27f","location_latitude":"33.826565","usage_date":"1664731445000","call_bdate":"0","called_no":"0","location_name":"Clothing  Computer Programmer VN","service_provider_id":"9","location_accuracy":"13.0","usage_timeframe":"1664731445000","shape_id":0,"call_edate":"0","location_longitude":"35.50728"}, {"calling_no":"0","device_id":"e9713ecb-ca48-4e65-889b-6742c45dd27f","location_latitude":"33.826565","usage_date":"1664737049000","call_bdate":"0","called_no":"0","location_name":"Clothing  Computer Programmer VN","service_provider_id":"9","location_accuracy":"13.0","usage_timeframe":"1664737049000","shape_id":0,"call_edate":"0","location_longitude":"35.50728"}, {"calling_no":"0","device_id":"e9713ecb-ca48-4e65-889b-6742c45dd27f","location_latitude":"33.826565","usage_date":"1664737117000","call_bdate":"0","called_no":"0","location_name":"Clothing  Computer Programmer VN","service_provider_id":"9","location_accuracy":"13.437","usage_timeframe":"1664737117000","shape_id":0,"call_edate":"0","location_longitude":"35.50728"}, {"calling_no":"0","device_id":"e9713ecb-ca48-4e65-889b-6742c45dd27f","location_latitude":"33.82656","usage_date":"1664737121000","call_bdate":"0","called_no":"0","location_name":"Clothing  Computer Programmer VN","service_provider_id":"9","location_accuracy":"13.0","usage_timeframe":"1664737121000","shape_id":0,"call_edate":"0","location_longitude":"35.50728"}, {"calling_no":"0","device_id":"e9713ecb-ca48-4e65-889b-6742c45dd27f","location_latitude":"33.826565","usage_date":"1664737128000","call_bdate":"0","called_no":"0","location_name":"Clothing  Computer Programmer VN","service_provider_id":"9","location_accuracy":"14.0","usage_timeframe":"1664737128000","shape_id":0,"call_edate":"0","location_longitude":"35.50728"}, {"calling_no":"0","device_id":"e9713ecb-ca48-4e65-889b-6742c45dd27f","location_latitude":"33.82656","usage_date":"1664737136000","call_bdate":"0","called_no":"0","location_name":"Clothing  Computer Programmer VN","service_provider_id":"9","location_accuracy":"14.0","usage_timeframe":"1664737136000","shape_id":0,"call_edate":"0","location_longitude":"35.50728"}, {"calling_no":"0","device_id":"e9713ecb-ca48-4e65-889b-6742c45dd27f","location_latitude":"33.82656","usage_date":"1664737177000","call_bdate":"0","called_no":"0","location_name":"Clothing  Computer Programmer VN","service_provider_id":"9","location_accuracy":"13.743","usage_timeframe":"1664737177000","shape_id":0,"call_edate":"0","location_longitude":"35.50727"}, {"calling_no":"0","device_id":"e9713ecb-ca48-4e65-889b-6742c45dd27f","location_latitude":"33.82656","usage_date":"1664780407000","call_bdate":"0","called_no":"0","location_name":"Clothing  Computer Programmer VN","service_provider_id":"9","location_accuracy":"20.0","usage_timeframe":"1664780407000","shape_id":0,"call_edate":"0","location_longitude":"35.507282"}, {"calling_no":"0","device_id":"e9713ecb-ca48-4e65-889b-6742c45dd27f","location_latitude":"33.82656","usage_date":"1664806305000","call_bdate":"0","called_no":"0","location_name":"Clothing  Computer Programmer VN","service_provider_id":"9","location_accuracy":"20.0","usage_timeframe":"1664806305000","shape_id":0,"call_edate":"0","location_longitude":"35.507282"}, {"calling_no":"0","device_id":"e9713ecb-ca48-4e65-889b-6742c45dd27f","location_latitude":"33.82656","usage_date":"1664819393000","call_bdate":"0","called_no":"0","location_name":"Clothing  Computer Programmer VN","service_provider_id":"9","location_accuracy":"20.0","usage_timeframe":"1664819393000","shape_id":0,"call_edate":"0","location_longitude":"35.507282"}, {"calling_no":"0","device_id":"e9713ecb-ca48-4e65-889b-6742c45dd27f","location_latitude":"33.82656","usage_date":"1664892486000","call_bdate":"0","called_no":"0","location_name":"Clothing  Computer Programmer VN","service_provider_id":"9","location_accuracy":"20.0","usage_timeframe":"1664892486000","shape_id":0,"call_edate":"0","location_longitude":"35.507282"}, {"calling_no":"0","device_id":"e9713ecb-ca48-4e65-889b-6742c45dd27f","location_latitude":"33.82656","usage_date":"1664903930000","call_bdate":"0","called_no":"0","location_name":"Clothing  Computer Programmer VN","service_provider_id":"9","location_accuracy":"20.0","usage_timeframe":"1664903930000","shape_id":0,"call_edate":"0","location_longitude":"35.507282"}, {"calling_no":"0","device_id":"e9713ecb-ca48-4e65-889b-6742c45dd27f","location_latitude":"33.82656","usage_date":"1664956121000","call_bdate":"0","called_no":"0","location_name":"Clothing  Computer Programmer VN","service_provider_id":"9","location_accuracy":"20.0","usage_timeframe":"1664956121000","shape_id":0,"call_edate":"0","location_longitude":"35.507282"}, {"calling_no":"0","device_id":"e9713ecb-ca48-4e65-889b-6742c45dd27f","location_latitude":"33.82656","usage_date":"1664996035000","call_bdate":"0","called_no":"0","location_name":"Clothing  Computer Programmer VN","service_provider_id":"9","location_accuracy":"20.0","usage_timeframe":"1664996035000","shape_id":0,"call_edate":"0","location_longitude":"35.50728"}, {"calling_no":"0","device_id":"e9713ecb-ca48-4e65-889b-6742c45dd27f","location_latitude":"33.82656","usage_date":"1665041406000","call_bdate":"0","called_no":"0","location_name":"Clothing  Computer Programmer VN","service_provider_id":"9","location_accuracy":"20.0","usage_timeframe":"1665041406000","shape_id":0,"call_edate":"0","location_longitude":"35.507282"}, {"calling_no":"0","device_id":"e9713ecb-ca48-4e65-889b-6742c45dd27f","location_latitude":"33.82656","usage_date":"1665041654000","call_bdate":"0","called_no":"0","location_name":"Clothing  Computer Programmer VN","service_provider_id":"9","location_accuracy":"20.0","usage_timeframe":"1665041654000","shape_id":0,"call_edate":"0","location_longitude":"35.507282"}, {"calling_no":"0","device_id":"e9713ecb-ca48-4e65-889b-6742c45dd27f","location_latitude":"33.82656","usage_date":"1665042192000","call_bdate":"0","called_no":"0","location_name":"Clothing  Computer Programmer VN","service_provider_id":"9","location_accuracy":"20.0","usage_timeframe":"1665042192000","shape_id":0,"call_edate":"0","location_longitude":"35.507282"}, {"calling_no":"0","device_id":"e9713ecb-ca48-4e65-889b-6742c45dd27f","location_latitude":"33.82656","usage_date":"1665042241000","call_bdate":"0","called_no":"0","location_name":"Clothing  Computer Programmer VN","service_provider_id":"9","location_accuracy":"20.0","usage_timeframe":"1665042241000","shape_id":0,"call_edate":"0","location_longitude":"35.507282"}, {"calling_no":"0","device_id":"e9713ecb-ca48-4e65-889b-6742c45dd27f","location_latitude":"33.82656","usage_date":"1665061576000","call_bdate":"0","called_no":"0","location_name":"Clothing  Computer Programmer VN","service_provider_id":"9","location_accuracy":"20.0","usage_timeframe":"1665061576000","shape_id":0,"call_edate":"0","location_longitude":"35.507282"}, {"calling_no":"0","device_id":"e9713ecb-ca48-4e65-889b-6742c45dd27f","location_latitude":"33.826565","usage_date":"1665061584000","call_bdate":"0","called_no":"0","location_name":"Clothing  Computer Programmer VN","service_provider_id":"9","location_accuracy":"14.0","usage_timeframe":"1665061584000","shape_id":0,"call_edate":"0","location_longitude":"35.507267"}, {"calling_no":"0","device_id":"e9713ecb-ca48-4e65-889b-6742c45dd27f","location_latitude":"33.82656","usage_date":"1665061755000","call_bdate":"0","called_no":"0","location_name":"Clothing  Computer Programmer VN","service_provider_id":"9","location_accuracy":"25.0","usage_timeframe":"1665061755000","shape_id":0,"call_edate":"0","location_longitude":"35.507282"}, {"calling_no":"0","device_id":"e9713ecb-ca48-4e65-889b-6742c45dd27f","location_latitude":"33.82656","usage_date":"1665063001000","call_bdate":"0","called_no":"0","location_name":"Clothing  Computer Programmer VN","service_provider_id":"9","location_accuracy":"25.0","usage_timeframe":"1665063001000","shape_id":0,"call_edate":"0","location_longitude":"35.507282"}, {"calling_no":"0","device_id":"e9713ecb-ca48-4e65-889b-6742c45dd27f","location_latitude":"33.82656","usage_date":"1665066845000","call_bdate":"0","called_no":"0","location_name":"Clothing  Computer Programmer VN","service_provider_id":"9","location_accuracy":"25.0","usage_timeframe":"1665066845000","shape_id":0,"call_edate":"0","location_longitude":"35.507282"}, {"calling_no":"0","device_id":"e9713ecb-ca48-4e65-889b-6742c45dd27f","location_latitude":"33.82656","usage_date":"1665069541000","call_bdate":"0","called_no":"0","location_name":"Clothing  Computer Programmer VN","service_provider_id":"9","location_accuracy":"24.9","usage_timeframe":"1665069541000","shape_id":0,"call_edate":"0","location_longitude":"35.507282"}, {"calling_no":"0","device_id":"e9713ecb-ca48-4e65-889b-6742c45dd27f","location_latitude":"33.82656","usage_date":"1665070081000","call_bdate":"0","called_no":"0","location_name":"Clothing  Computer Programmer VN","service_provider_id":"9","location_accuracy":"25.0","usage_timeframe":"1665070081000","shape_id":0,"call_edate":"0","location_longitude":"35.507282"}, {"calling_no":"0","device_id":"e9713ecb-ca48-4e65-889b-6742c45dd27f","location_latitude":"33.82656","usage_date":"1665071282000","call_bdate":"0","called_no":"0","location_name":"Clothing  Computer Programmer VN","service_provider_id":"9","location_accuracy":"25.0","usage_timeframe":"1665071282000","shape_id":0,"call_edate":"0","location_longitude":"35.50728"}, {"calling_no":"0","device_id":"e9713ecb-ca48-4e65-889b-6742c45dd27f","location_latitude":"33.82656","usage_date":"1665072425000","call_bdate":"0","called_no":"0","location_name":"Clothing  Computer Programmer VN","service_provider_id":"9","location_accuracy":"24.9","usage_timeframe":"1665072425000","shape_id":0,"call_edate":"0","location_longitude":"35.507282"}, {"calling_no":"0","device_id":"e9713ecb-ca48-4e65-889b-6742c45dd27f","location_latitude":"33.82656","usage_date":"1665074044000","call_bdate":"0","called_no":"0","location_name":"Clothing  Computer Programmer VN","service_provider_id":"9","location_accuracy":"24.9","usage_timeframe":"1665074044000","shape_id":0,"call_edate":"0","location_longitude":"35.507282"}, {"calling_no":"0","device_id":"e9713ecb-ca48-4e65-889b-6742c45dd27f","location_latitude":"33.82656","usage_date":"1665074582000","call_bdate":"0","called_no":"0","location_name":"Clothing  Computer Programmer VN","service_provider_id":"9","location_accuracy":"24.9","usage_timeframe":"1665074582000","shape_id":0,"call_edate":"0","location_longitude":"35.507282"}, {"calling_no":"0","device_id":"e9713ecb-ca48-4e65-889b-6742c45dd27f","location_latitude":"33.82656","usage_date":"1665077643000","call_bdate":"0","called_no":"0","location_name":"Clothing  Computer Programmer VN","service_provider_id":"9","location_accuracy":"25.0","usage_timeframe":"1665077643000","shape_id":0,"call_edate":"0","location_longitude":"35.507282"}, {"calling_no":"0","device_id":"e9713ecb-ca48-4e65-889b-6742c45dd27f","location_latitude":"33.82656","usage_date":"1665083702000","call_bdate":"0","called_no":"0","location_name":"Clothing  Computer Programmer VN","service_provider_id":"9","location_accuracy":"24.9","usage_timeframe":"1665083702000","shape_id":0,"call_edate":"0","location_longitude":"35.507282"}, {"calling_no":"0","device_id":"e9713ecb-ca48-4e65-889b-6742c45dd27f","location_latitude":"33.82656","usage_date":"1665099041000","call_bdate":"0","called_no":"0","location_name":"Clothing  Computer Programmer VN","service_provider_id":"9","location_accuracy":"25.0","usage_timeframe":"1665099041000","shape_id":0,"call_edate":"0","location_longitude":"35.507282"}, {"calling_no":"0","device_id":"e9713ecb-ca48-4e65-889b-6742c45dd27f","location_latitude":"33.82656","usage_date":"1665140047000","call_bdate":"0","called_no":"0","location_name":"Clothing  Computer Programmer VN","service_provider_id":"9","location_accuracy":"24.9","usage_timeframe":"1665140047000","shape_id":0,"call_edate":"0","location_longitude":"35.507282"}, {"calling_no":"0","device_id":"e9713ecb-ca48-4e65-889b-6742c45dd27f","location_latitude":"33.82656","usage_date":"1665146881000","call_bdate":"0","called_no":"0","location_name":"Clothing  Computer Programmer VN","service_provider_id":"9","location_accuracy":"24.9","usage_timeframe":"1665146881000","shape_id":0,"call_edate":"0","location_longitude":"35.507282"}, {"calling_no":"0","device_id":"e9713ecb-ca48-4e65-889b-6742c45dd27f","location_latitude":"33.82656","usage_date":"1665146901000","call_bdate":"0","called_no":"0","location_name":"Clothing  Computer Programmer VN","service_provider_id":"9","location_accuracy":"25.0","usage_timeframe":"1665146901000","shape_id":0,"call_edate":"0","location_longitude":"35.50728"}, {"calling_no":"0","device_id":"e9713ecb-ca48-4e65-889b-6742c45dd27f","location_latitude":"33.826572","usage_date":"1665146912000","call_bdate":"0","called_no":"0","location_name":"Clothing  Computer Programmer VN","service_provider_id":"9","location_accuracy":"12.644","usage_timeframe":"1665146912000","shape_id":0,"call_edate":"0","location_longitude":"35.50729"}, {"calling_no":"0","device_id":"e9713ecb-ca48-4e65-889b-6742c45dd27f","location_latitude":"33.826565","usage_date":"1665147574000","call_bdate":"0","called_no":"0","location_name":"Clothing  Computer Programmer VN","service_provider_id":"9","location_accuracy":"22.5","usage_timeframe":"1665147574000","shape_id":0,"call_edate":"0","location_longitude":"35.507294"}, {"calling_no":"0","device_id":"e9713ecb-ca48-4e65-889b-6742c45dd27f","location_latitude":"33.82656","usage_date":"1665148466000","call_bdate":"0","called_no":"0","location_name":"Clothing  Computer Programmer VN","service_provider_id":"9","location_accuracy":"23.0","usage_timeframe":"1665148466000","shape_id":0,"call_edate":"0","location_longitude":"35.50729"}, {"calling_no":"0","device_id":"e9713ecb-ca48-4e65-889b-6742c45dd27f","location_latitude":"33.82656","usage_date":"1665157625000","call_bdate":"0","called_no":"0","location_name":"Clothing  Computer Programmer VN","service_provider_id":"9","location_accuracy":"23.0","usage_timeframe":"1665157625000","shape_id":0,"call_edate":"0","location_longitude":"35.50729"}, {"calling_no":"0","device_id":"e9713ecb-ca48-4e65-889b-6742c45dd27f","location_latitude":"33.826565","usage_date":"1665160383000","call_bdate":"0","called_no":"0","location_name":"Clothing  Computer Programmer VN","service_provider_id":"9","location_accuracy":"23.0","usage_timeframe":"1665160383000","shape_id":0,"call_edate":"0","location_longitude":"35.507294"}, {"calling_no":"0","device_id":"e9713ecb-ca48-4e65-889b-6742c45dd27f","location_latitude":"33.82656","usage_date":"1665170107000","call_bdate":"0","called_no":"0","location_name":"Clothing  Computer Programmer VN","service_provider_id":"9","location_accuracy":"23.0","usage_timeframe":"1665170107000","shape_id":0,"call_edate":"0","location_longitude":"35.50729"}, {"calling_no":"0","device_id":"e9713ecb-ca48-4e65-889b-6742c45dd27f","location_latitude":"33.826565","usage_date":"1665184227000","call_bdate":"0","called_no":"0","location_name":"Clothing  Computer Programmer VN","service_provider_id":"9","location_accuracy":"23.0","usage_timeframe":"1665184227000","shape_id":0,"call_edate":"0","location_longitude":"35.507294"}, {"calling_no":"0","device_id":"e9713ecb-ca48-4e65-889b-6742c45dd27f","location_latitude":"33.82656","usage_date":"1665246801000","call_bdate":"0","called_no":"0","location_name":"Clothing  Computer Programmer VN","service_provider_id":"9","location_accuracy":"23.0","usage_timeframe":"1665246801000","shape_id":0,"call_edate":"0","location_longitude":"35.50729"}, {"calling_no":"0","device_id":"e9713ecb-ca48-4e65-889b-6742c45dd27f","location_latitude":"33.82657","usage_date":"1665246808000","call_bdate":"0","called_no":"0","location_name":"Clothing  Computer Programmer VN","service_provider_id":"9","location_accuracy":"14.809","usage_timeframe":"1665246808000","shape_id":0,"call_edate":"0","location_longitude":"35.507294"}, {"calling_no":"0","device_id":"e9713ecb-ca48-4e65-889b-6742c45dd27f","location_latitude":"33.826565","usage_date":"1665246981000","call_bdate":"0","called_no":"0","location_name":"Clothing  Computer Programmer VN","service_provider_id":"9","location_accuracy":"14.472","usage_timeframe":"1665246981000","shape_id":0,"call_edate":"0","location_longitude":"35.50729"}, {"calling_no":"0","device_id":"e9713ecb-ca48-4e65-889b-6742c45dd27f","location_latitude":"33.82656","usage_date":"1665247265000","call_bdate":"0","called_no":"0","location_name":"Clothing  Computer Programmer VN","service_provider_id":"9","location_accuracy":"15.0","usage_timeframe":"1665247265000","shape_id":0,"call_edate":"0","location_longitude":"35.50728"}, {"calling_no":"0","device_id":"e9713ecb-ca48-4e65-889b-6742c45dd27f","location_latitude":"33.82656","usage_date":"1665249364000","call_bdate":"0","called_no":"0","location_name":"Clothing  Computer Programmer VN","service_provider_id":"9","location_accuracy":"15.0","usage_timeframe":"1665249364000","shape_id":0,"call_edate":"0","location_longitude":"35.50728"}, {"calling_no":"0","device_id":"e9713ecb-ca48-4e65-889b-6742c45dd27f","location_latitude":"33.82656","usage_date":"1665326782000","call_bdate":"0","called_no":"0","location_name":"Clothing  Computer Programmer VN","service_provider_id":"9","location_accuracy":"15.0","usage_timeframe":"1665326782000","shape_id":0,"call_edate":"0","location_longitude":"35.50728"}, {"calling_no":"0","device_id":"e9713ecb-ca48-4e65-889b-6742c45dd27f","location_latitude":"33.826565","usage_date":"1665387749000","call_bdate":"0","called_no":"0","location_name":"Clothing  Computer Programmer VN","service_provider_id":"9","location_accuracy":"15.0","usage_timeframe":"1665387749000","shape_id":0,"call_edate":"0","location_longitude":"35.50729"}, {"calling_no":"0","device_id":"e9713ecb-ca48-4e65-889b-6742c45dd27f","location_latitude":"33.826565","usage_date":"1665387756000","call_bdate":"0","called_no":"0","location_name":"Clothing  Computer Programmer VN","service_provider_id":"9","location_accuracy":"14.478","usage_timeframe":"1665387756000","shape_id":0,"call_edate":"0","location_longitude":"35.5073"}, {"calling_no":"0","device_id":"e9713ecb-ca48-4e65-889b-6742c45dd27f","location_latitude":"33.826557","usage_date":"1665387829000","call_bdate":"0","called_no":"0","location_name":"Clothing  Computer Programmer VN","service_provider_id":"9","location_accuracy":"15.857","usage_timeframe":"1665387829000","shape_id":0,"call_edate":"0","location_longitude":"35.507275"}, {"calling_no":"0","device_id":"e9713ecb-ca48-4e65-889b-6742c45dd27f","location_latitude":"33.826557","usage_date":"1665393902000","call_bdate":"0","called_no":"0","location_name":"Clothing  Computer Programmer VN","service_provider_id":"9","location_accuracy":"15.857","usage_timeframe":"1665393902000","shape_id":0,"call_edate":"0","location_longitude":"35.507275"}, {"calling_no":"0","device_id":"e9713ecb-ca48-4e65-889b-6742c45dd27f","location_latitude":"33.82655","usage_date":"1665405722000","call_bdate":"0","called_no":"0","location_name":"Clothing  Computer Programmer VN","service_provider_id":"9","location_accuracy":"16.0","usage_timeframe":"1665405722000","shape_id":0,"call_edate":"0","location_longitude":"35.50727"}, {"calling_no":"0","device_id":"e9713ecb-ca48-4e65-889b-6742c45dd27f","location_latitude":"33.82655","usage_date":"1665408363000","call_bdate":"0","called_no":"0","location_name":"Clothing  Computer Programmer VN","service_provider_id":"9","location_accuracy":"16.0","usage_timeframe":"1665408363000","shape_id":0,"call_edate":"0","location_longitude":"35.50727"}, {"calling_no":"0","device_id":"e9713ecb-ca48-4e65-889b-6742c45dd27f","location_latitude":"33.826557","usage_date":"1665410938000","call_bdate":"0","called_no":"0","location_name":"Clothing  Computer Programmer VN","service_provider_id":"9","location_accuracy":"15.857","usage_timeframe":"1665410938000","shape_id":0,"call_edate":"0","location_longitude":"35.507275"}, {"calling_no":"0","device_id":"e9713ecb-ca48-4e65-889b-6742c45dd27f","location_latitude":"33.826557","usage_date":"1665414856000","call_bdate":"0","called_no":"0","location_name":"Clothing  Computer Programmer VN","service_provider_id":"9","location_accuracy":"16.0","usage_timeframe":"1665414856000","shape_id":0,"call_edate":"0","location_longitude":"35.507275"}, {"calling_no":"0","device_id":"e9713ecb-ca48-4e65-889b-6742c45dd27f","location_latitude":"33.82655","usage_date":"1665416583000","call_bdate":"0","called_no":"0","location_name":"Clothing  Computer Programmer VN","service_provider_id":"9","location_accuracy":"16.0","usage_timeframe":"1665416583000","shape_id":0,"call_edate":"0","location_longitude":"35.50727"}, {"calling_no":"0","device_id":"e9713ecb-ca48-4e65-889b-6742c45dd27f","location_latitude":"33.82655","usage_date":"1665421983000","call_bdate":"0","called_no":"0","location_name":"Clothing  Computer Programmer VN","service_provider_id":"9","location_accuracy":"16.0","usage_timeframe":"1665421983000","shape_id":0,"call_edate":"0","location_longitude":"35.50727"}, {"calling_no":"0","device_id":"e9713ecb-ca48-4e65-889b-6742c45dd27f","location_latitude":"33.82655","usage_date":"1665501534000","call_bdate":"0","called_no":"0","location_name":"Clothing  Computer Programmer VN","service_provider_id":"9","location_accuracy":"16.0","usage_timeframe":"1665501534000","shape_id":0,"call_edate":"0","location_longitude":"35.50727"}, {"calling_no":"0","device_id":"e9713ecb-ca48-4e65-889b-6742c45dd27f","location_latitude":"33.82655","usage_date":"1665503373000","call_bdate":"0","called_no":"0","location_name":"Clothing  Computer Programmer VN","service_provider_id":"9","location_accuracy":"16.0","usage_timeframe":"1665503373000","shape_id":0,"call_edate":"0","location_longitude":"35.50727"}, {"calling_no":"0","device_id":"e9713ecb-ca48-4e65-889b-6742c45dd27f","location_latitude":"33.82661","usage_date":"1665505699000","call_bdate":"0","called_no":"0","location_name":"Clothing  Computer Programmer VN","service_provider_id":"9","location_accuracy":"23.0","usage_timeframe":"1665505699000","shape_id":0,"call_edate":"0","location_longitude":"35.50722"}, {"calling_no":"0","device_id":"e9713ecb-ca48-4e65-889b-6742c45dd27f","location_latitude":"33.82663","usage_date":"1665505899000","call_bdate":"0","called_no":"0","location_name":"Clothing  Computer Programmer VN","service_provider_id":"9","location_accuracy":"19.0","usage_timeframe":"1665505899000","shape_id":0,"call_edate":"0","location_longitude":"35.50721"}, {"calling_no":"0","device_id":"e9713ecb-ca48-4e65-889b-6742c45dd27f","location_latitude":"33.82663","usage_date":"1665506536000","call_bdate":"0","called_no":"0","location_name":"Clothing  Computer Programmer VN","service_provider_id":"9","location_accuracy":"19.0","usage_timeframe":"1665506536000","shape_id":0,"call_edate":"0","location_longitude":"35.50721"}, {"calling_no":"0","device_id":"e9713ecb-ca48-4e65-889b-6742c45dd27f","location_latitude":"33.82663","usage_date":"1665596156000","call_bdate":"0","called_no":"0","location_name":"Clothing  Computer Programmer VN","service_provider_id":"9","location_accuracy":"19.0","usage_timeframe":"1665596156000","shape_id":0,"call_edate":"0","location_longitude":"35.507217"}, {"calling_no":"0","device_id":"e9713ecb-ca48-4e65-889b-6742c45dd27f","location_latitude":"33.82663","usage_date":"1665615739000","call_bdate":"0","called_no":"0","location_name":"Clothing  Computer Programmer VN","service_provider_id":"9","location_accuracy":"18.756","usage_timeframe":"1665615739000","shape_id":0,"call_edate":"0","location_longitude":"35.507217"}, {"calling_no":"0","device_id":"e9713ecb-ca48-4e65-889b-6742c45dd27f","location_latitude":"33.82663","usage_date":"1665670008000","call_bdate":"0","called_no":"0","location_name":"Clothing  Computer Programmer VN","service_provider_id":"9","location_accuracy":"18.756","usage_timeframe":"1665670008000","shape_id":0,"call_edate":"0","location_longitude":"35.507217"}, {"calling_no":"0","device_id":"e9713ecb-ca48-4e65-889b-6742c45dd27f","location_latitude":"33.82663","usage_date":"1665687788000","call_bdate":"0","called_no":"0","location_name":"Clothing  Computer Programmer VN","service_provider_id":"9","location_accuracy":"19.0","usage_timeframe":"1665687788000","shape_id":0,"call_edate":"0","location_longitude":"35.50721"}, {"calling_no":"0","device_id":"e9713ecb-ca48-4e65-889b-6742c45dd27f","location_latitude":"33.82663","usage_date":"1665747902000","call_bdate":"0","called_no":"0","location_name":"Clothing  Computer Programmer VN","service_provider_id":"9","location_accuracy":"19.0","usage_timeframe":"1665747902000","shape_id":0,"call_edate":"0","location_longitude":"35.507217"}, {"calling_no":"0","device_id":"e9713ecb-ca48-4e65-889b-6742c45dd27f","location_latitude":"33.82663","usage_date":"1665756200000","call_bdate":"0","called_no":"0","location_name":"Clothing  Computer Programmer VN","service_provider_id":"9","location_accuracy":"18.756","usage_timeframe":"1665756200000","shape_id":0,"call_edate":"0","location_longitude":"35.507217"}, {"calling_no":"0","device_id":"e9713ecb-ca48-4e65-889b-6742c45dd27f","location_latitude":"33.82663","usage_date":"1665783198000","call_bdate":"0","called_no":"0","location_name":"Clothing  Computer Programmer VN","service_provider_id":"9","location_accuracy":"19.0","usage_timeframe":"1665783198000","shape_id":0,"call_edate":"0","location_longitude":"35.507217"}, {"calling_no":"0","device_id":"e9713ecb-ca48-4e65-889b-6742c45dd27f","location_latitude":"33.82663","usage_date":"1665838231000","call_bdate":"0","called_no":"0","location_name":"Clothing  Computer Programmer VN","service_provider_id":"9","location_accuracy":"19.0","usage_timeframe":"1665838231000","shape_id":0,"call_edate":"0","location_longitude":"35.50721"}, {"calling_no":"0","device_id":"e9713ecb-ca48-4e65-889b-6742c45dd27f","location_latitude":"33.82663","usage_date":"1665838236000","call_bdate":"0","called_no":"0","location_name":"Clothing  Computer Programmer VN","service_provider_id":"9","location_accuracy":"19.0","usage_timeframe":"1665838236000","shape_id":0,"call_edate":"0","location_longitude":"35.50721"}, {"calling_no":"0","device_id":"e9713ecb-ca48-4e65-889b-6742c45dd27f","location_latitude":"33.82663","usage_date":"1665842608000","call_bdate":"0","called_no":"0","location_name":"Clothing  Computer Programmer VN","service_provider_id":"9","location_accuracy":"19.0","usage_timeframe":"1665842608000","shape_id":0,"call_edate":"0","location_longitude":"35.50721"}, {"calling_no":"0","device_id":"e9713ecb-ca48-4e65-889b-6742c45dd27f","location_latitude":"33.82663","usage_date":"1665904759000","call_bdate":"0","called_no":"0","location_name":"Clothing  Computer Programmer VN","service_provider_id":"9","location_accuracy":"19.0","usage_timeframe":"1665904759000","shape_id":0,"call_edate":"0","location_longitude":"35.507217"}, {"calling_no":"0","device_id":"e9713ecb-ca48-4e65-889b-6742c45dd27f","location_latitude":"33.82663","usage_date":"1665937247000","call_bdate":"0","called_no":"0","location_name":"Clothing  Computer Programmer VN","service_provider_id":"9","location_accuracy":"19.0","usage_timeframe":"1665937247000","shape_id":0,"call_edate":"0","location_longitude":"35.507217"}, {"calling_no":"0","device_id":"e9713ecb-ca48-4e65-889b-6742c45dd27f","location_latitude":"33.82663","usage_date":"1665943470000","call_bdate":"0","called_no":"0","location_name":"Clothing  Computer Programmer VN","service_provider_id":"9","location_accuracy":"19.0","usage_timeframe":"1665943470000","shape_id":0,"call_edate":"0","location_longitude":"35.507217"}, {"calling_no":"0","device_id":"e9713ecb-ca48-4e65-889b-6742c45dd27f","location_latitude":"33.82663","usage_date":"1666015584000","call_bdate":"0","called_no":"0","location_name":"Clothing  Computer Programmer VN","service_provider_id":"9","location_accuracy":"19.0","usage_timeframe":"1666015584000","shape_id":0,"call_edate":"0","location_longitude":"35.507217"}, {"calling_no":"0","device_id":"e9713ecb-ca48-4e65-889b-6742c45dd27f","location_latitude":"33.82663","usage_date":"1666037720000","call_bdate":"0","called_no":"0","location_name":"Clothing  Computer Programmer VN","service_provider_id":"9","location_accuracy":"19.0","usage_timeframe":"1666037720000","shape_id":0,"call_edate":"0","location_longitude":"35.50721"}, {"calling_no":"0","device_id":"e9713ecb-ca48-4e65-889b-6742c45dd27f","location_latitude":"33.82663","usage_date":"1666077461000","call_bdate":"0","called_no":"0","location_name":"Clothing  Computer Programmer VN","service_provider_id":"9","location_accuracy":"18.756","usage_timeframe":"1666077461000","shape_id":0,"call_edate":"0","location_longitude":"35.507217"}, {"calling_no":"0","device_id":"e9713ecb-ca48-4e65-889b-6742c45dd27f","location_latitude":"33.826588","usage_date":"1666099146000","call_bdate":"0","called_no":"0","location_name":"Clothing  Computer Programmer VN","service_provider_id":"9","location_accuracy":"35.016","usage_timeframe":"1666099146000","shape_id":0,"call_edate":"0","location_longitude":"35.507202"}, {"calling_no":"0","device_id":"e9713ecb-ca48-4e65-889b-6742c45dd27f","location_latitude":"33.826588","usage_date":"1666102082000","call_bdate":"0","called_no":"0","location_name":"Clothing  Computer Programmer VN","service_provider_id":"9","location_accuracy":"35.0","usage_timeframe":"1666102082000","shape_id":0,"call_edate":"0","location_longitude":"35.507202"}, {"calling_no":"0","device_id":"e9713ecb-ca48-4e65-889b-6742c45dd27f","location_latitude":"33.82658","usage_date":"1666105441000","call_bdate":"0","called_no":"0","location_name":"Clothing  Computer Programmer VN","service_provider_id":"9","location_accuracy":"35.0","usage_timeframe":"1666105441000","shape_id":0,"call_edate":"0","location_longitude":"35.5072"}, {"calling_no":"0","device_id":"e9713ecb-ca48-4e65-889b-6742c45dd27f","location_latitude":"33.82658","usage_date":"1666105984000","call_bdate":"0","called_no":"0","location_name":"Clothing  Computer Programmer VN","service_provider_id":"9","location_accuracy":"35.0","usage_timeframe":"1666105984000","shape_id":0,"call_edate":"0","location_longitude":"35.5072"}, {"calling_no":"0","device_id":"e9713ecb-ca48-4e65-889b-6742c45dd27f","location_latitude":"33.82658","usage_date":"1666109943000","call_bdate":"0","called_no":"0","location_name":"Clothing  Computer Programmer VN","service_provider_id":"9","location_accuracy":"35.0","usage_timeframe":"1666109943000","shape_id":0,"call_edate":"0","location_longitude":"35.5072"}, {"calling_no":"0","device_id":"e9713ecb-ca48-4e65-889b-6742c45dd27f","location_latitude":"33.826588","usage_date":"1666112583000","call_bdate":"0","called_no":"0","location_name":"Clothing  Computer Programmer VN","service_provider_id":"9","location_accuracy":"35.016","usage_timeframe":"1666112583000","shape_id":0,"call_edate":"0","location_longitude":"35.507202"}, {"calling_no":"0","device_id":"e9713ecb-ca48-4e65-889b-6742c45dd27f","location_latitude":"33.826565","usage_date":"1666120757000","call_bdate":"0","called_no":"0","location_name":"Clothing  Computer Programmer VN","service_provider_id":"9","location_accuracy":"13.237","usage_timeframe":"1666120757000","shape_id":0,"call_edate":"0","location_longitude":"35.507282"}, {"calling_no":"0","device_id":"e9713ecb-ca48-4e65-889b-6742c45dd27f","location_latitude":"33.82656","usage_date":"1666120809000","call_bdate":"0","called_no":"0","location_name":"Clothing  Computer Programmer VN","service_provider_id":"9","location_accuracy":"20.0","usage_timeframe":"1666120809000","shape_id":0,"call_edate":"0","location_longitude":"35.507282"}, {"calling_no":"0","device_id":"e9713ecb-ca48-4e65-889b-6742c45dd27f","location_latitude":"33.82656","usage_date":"1666120857000","call_bdate":"0","called_no":"0","location_name":"Clothing  Computer Programmer VN","service_provider_id":"9","location_accuracy":"14.0","usage_timeframe":"1666120857000","shape_id":0,"call_edate":"0","location_longitude":"35.50728"}, {"calling_no":"0","device_id":"e9713ecb-ca48-4e65-889b-6742c45dd27f","location_latitude":"33.82656","usage_date":"1666120878000","call_bdate":"0","called_no":"0","location_name":"Clothing  Computer Programmer VN","service_provider_id":"9","location_accuracy":"14.0","usage_timeframe":"1666120878000","shape_id":0,"call_edate":"0","location_longitude":"35.507282"}, {"calling_no":"0","device_id":"e9713ecb-ca48-4e65-889b-6742c45dd27f","location_latitude":"33.82656","usage_date":"1666171382000","call_bdate":"0","called_no":"0","location_name":"Clothing  Computer Programmer VN","service_provider_id":"9","location_accuracy":"20.0","usage_timeframe":"1666171382000","shape_id":0,"call_edate":"0","location_longitude":"35.507286"}, {"calling_no":"0","device_id":"e9713ecb-ca48-4e65-889b-6742c45dd27f","location_latitude":"33.82656","usage_date":"1666171922000","call_bdate":"0","called_no":"0","location_name":"Clothing  Computer Programmer VN","service_provider_id":"9","location_accuracy":"20.0","usage_timeframe":"1666171922000","shape_id":0,"call_edate":"0","location_longitude":"35.50728"}, {"calling_no":"0","device_id":"e9713ecb-ca48-4e65-889b-6742c45dd27f","location_latitude":"33.82656","usage_date":"1666174023000","call_bdate":"0","called_no":"0","location_name":"Clothing  Computer Programmer VN","service_provider_id":"9","location_accuracy":"20.0","usage_timeframe":"1666174023000","shape_id":0,"call_edate":"0","location_longitude":"35.50728"}, {"calling_no":"0","device_id":"e9713ecb-ca48-4e65-889b-6742c45dd27f","location_latitude":"33.82656","usage_date":"1666182842000","call_bdate":"0","called_no":"0","location_name":"Clothing  Computer Programmer VN","service_provider_id":"9","location_accuracy":"20.0","usage_timeframe":"1666182842000","shape_id":0,"call_edate":"0","location_longitude":"35.507286"}, {"calling_no":"0","device_id":"e9713ecb-ca48-4e65-889b-6742c45dd27f","location_latitude":"33.82656","usage_date":"1666182853000","call_bdate":"0","called_no":"0","location_name":"Clothing  Computer Programmer VN","service_provider_id":"9","location_accuracy":"20.0","usage_timeframe":"1666182853000","shape_id":0,"call_edate":"0","location_longitude":"35.50728"}, {"calling_no":"0","device_id":"e9713ecb-ca48-4e65-889b-6742c45dd27f","location_latitude":"33.82656","usage_date":"1666182860000","call_bdate":"0","called_no":"0","location_name":"Clothing  Computer Programmer VN","service_provider_id":"9","location_accuracy":"12.0","usage_timeframe":"1666182860000","shape_id":0,"call_edate":"0","location_longitude":"35.50728"}, {"calling_no":"0","device_id":"e9713ecb-ca48-4e65-889b-6742c45dd27f","location_latitude":"33.826565","usage_date":"1666183847000","call_bdate":"0","called_no":"0","location_name":"Clothing  Computer Programmer VN","service_provider_id":"9","location_accuracy":"14.0","usage_timeframe":"1666183847000","shape_id":0,"call_edate":"0","location_longitude":"35.507294"}, {"calling_no":"0","device_id":"e9713ecb-ca48-4e65-889b-6742c45dd27f","location_latitude":"33.82657","usage_date":"1666183851000","call_bdate":"0","called_no":"0","location_name":"Clothing  Computer Programmer VN","service_provider_id":"9","location_accuracy":"17.2","usage_timeframe":"1666183851000","shape_id":0,"call_edate":"0","location_longitude":"35.507286"}, {"calling_no":"0","device_id":"e9713ecb-ca48-4e65-889b-6742c45dd27f","location_latitude":"33.82656","usage_date":"1666196283000","call_bdate":"0","called_no":"0","location_name":"Clothing  Computer Programmer VN","service_provider_id":"9","location_accuracy":"17.0","usage_timeframe":"1666196283000","shape_id":0,"call_edate":"0","location_longitude":"35.50728"}, {"calling_no":"0","device_id":"e9713ecb-ca48-4e65-889b-6742c45dd27f","location_latitude":"33.82656","usage_date":"1666197860000","call_bdate":"0","called_no":"0","location_name":"Clothing  Computer Programmer VN","service_provider_id":"9","location_accuracy":"17.0","usage_timeframe":"1666197860000","shape_id":0,"call_edate":"0","location_longitude":"35.50728"}, {"calling_no":"0","device_id":"e9713ecb-ca48-4e65-889b-6742c45dd27f","location_latitude":"33.82656","usage_date":"1666197868000","call_bdate":"0","called_no":"0","location_name":"Clothing  Computer Programmer VN","service_provider_id":"9","location_accuracy":"17.0","usage_timeframe":"1666197868000","shape_id":0,"call_edate":"0","location_longitude":"35.50728"}, {"calling_no":"0","device_id":"e9713ecb-ca48-4e65-889b-6742c45dd27f","location_latitude":"33.82656","usage_date":"1666206906000","call_bdate":"0","called_no":"0","location_name":"Clothing  Computer Programmer VN","service_provider_id":"9","location_accuracy":"17.0","usage_timeframe":"1666206906000","shape_id":0,"call_edate":"0","location_longitude":"35.50728"}, {"calling_no":"0","device_id":"e9713ecb-ca48-4e65-889b-6742c45dd27f","location_latitude":"33.82656","usage_date":"1666207319000","call_bdate":"0","called_no":"0","location_name":"Clothing  Computer Programmer VN","service_provider_id":"9","location_accuracy":"17.0","usage_timeframe":"1666207319000","shape_id":0,"call_edate":"0","location_longitude":"35.50728"}, {"calling_no":"0","device_id":"e9713ecb-ca48-4e65-889b-6742c45dd27f","location_latitude":"33.82657","usage_date":"1666278476000","call_bdate":"0","called_no":"0","location_name":"Clothing  Computer Programmer VN","service_provider_id":"9","location_accuracy":"17.0","usage_timeframe":"1666278476000","shape_id":0,"call_edate":"0","location_longitude":"35.507286"}, {"calling_no":"0","device_id":"e9713ecb-ca48-4e65-889b-6742c45dd27f","location_latitude":"33.82656","usage_date":"1666294660000","call_bdate":"0","called_no":"0","location_name":"Clothing  Computer Programmer VN","service_provider_id":"9","location_accuracy":"17.0","usage_timeframe":"1666294660000","shape_id":0,"call_edate":"0","location_longitude":"35.50728"}, {"calling_no":"0","device_id":"e9713ecb-ca48-4e65-889b-6742c45dd27f","location_latitude":"33.82657","usage_date":"1666335444000","call_bdate":"0","called_no":"0","location_name":"Clothing  Computer Programmer VN","service_provider_id":"9","location_accuracy":"17.0","usage_timeframe":"1666335444000","shape_id":0,"call_edate":"0","location_longitude":"35.507286"}, {"calling_no":"0","device_id":"e9713ecb-ca48-4e65-889b-6742c45dd27f","location_latitude":"33.82657","usage_date":"1666360913000","call_bdate":"0","called_no":"0","location_name":"Clothing  Computer Programmer VN","service_provider_id":"9","location_accuracy":"17.2","usage_timeframe":"1666360913000","shape_id":0,"call_edate":"0","location_longitude":"35.507286"}, {"calling_no":"0","device_id":"e9713ecb-ca48-4e65-889b-6742c45dd27f","location_latitude":"33.82656","usage_date":"1666379593000","call_bdate":"0","called_no":"0","location_name":"Clothing  Computer Programmer VN","service_provider_id":"9","location_accuracy":"17.0","usage_timeframe":"1666379593000","shape_id":0,"call_edate":"0","location_longitude":"35.50728"}, {"calling_no":"0","device_id":"e9713ecb-ca48-4e65-889b-6742c45dd27f","location_latitude":"33.82657","usage_date":"1666546709000","call_bdate":"0","called_no":"0","location_name":"Clothing  Computer Programmer VN","service_provider_id":"9","location_accuracy":"17.2","usage_timeframe":"1666546709000","shape_id":0,"call_edate":"0","location_longitude":"35.507286"}, {"calling_no":"0","device_id":"e9713ecb-ca48-4e65-889b-6742c45dd27f","location_latitude":"33.82657","usage_date":"1666548369000","call_bdate":"0","called_no":"0","location_name":"Clothing  Computer Programmer VN","service_provider_id":"9","location_accuracy":"17.0","usage_timeframe":"1666548369000","shape_id":0,"call_edate":"0","location_longitude":"35.507286"}, {"calling_no":"0","device_id":"e9713ecb-ca48-4e65-889b-6742c45dd27f","location_latitude":"33.82657","usage_date":"1666580430000","call_bdate":"0","called_no":"0","location_name":"Clothing  Computer Programmer VN","service_provider_id":"9","location_accuracy":"17.0","usage_timeframe":"1666580430000","shape_id":0,"call_edate":"0","location_longitude":"35.507286"}, {"calling_no":"0","device_id":"e9713ecb-ca48-4e65-889b-6742c45dd27f","location_latitude":"33.82657","usage_date":"1666589271000","call_bdate":"0","called_no":"0","location_name":"Clothing  Computer Programmer VN","service_provider_id":"9","location_accuracy":"17.2","usage_timeframe":"1666589271000","shape_id":0,"call_edate":"0","location_longitude":"35.507286"}, {"calling_no":"0","device_id":"e9713ecb-ca48-4e65-889b-6742c45dd27f","location_latitude":"33.82657","usage_date":"1666603670000","call_bdate":"0","called_no":"0","location_name":"Clothing  Computer Programmer VN","service_provider_id":"9","location_accuracy":"17.0","usage_timeframe":"1666603670000","shape_id":0,"call_edate":"0","location_longitude":"35.507286"}, {"calling_no":"0","device_id":"e9713ecb-ca48-4e65-889b-6742c45dd27f","location_latitude":"33.82657","usage_date":"1666606070000","call_bdate":"0","called_no":"0","location_name":"Clothing  Computer Programmer VN","service_provider_id":"9","location_accuracy":"17.0","usage_timeframe":"1666606070000","shape_id":0,"call_edate":"0","location_longitude":"35.507286"}, {"calling_no":"0","device_id":"e9713ecb-ca48-4e65-889b-6742c45dd27f","location_latitude":"33.82656","usage_date":"1666614771000","call_bdate":"0","called_no":"0","location_name":"Clothing  Computer Programmer VN","service_provider_id":"9","location_accuracy":"17.0","usage_timeframe":"1666614771000","shape_id":0,"call_edate":"0","location_longitude":"35.50728"}, {"calling_no":"0","device_id":"e9713ecb-ca48-4e65-889b-6742c45dd27f","location_latitude":"33.82657","usage_date":"1666615371000","call_bdate":"0","called_no":"0","location_name":"Clothing  Computer Programmer VN","service_provider_id":"9","location_accuracy":"17.0","usage_timeframe":"1666615371000","shape_id":0,"call_edate":"0","location_longitude":"35.507286"}, {"calling_no":"0","device_id":"e9713ecb-ca48-4e65-889b-6742c45dd27f","location_latitude":"33.82657","usage_date":"1666617479000","call_bdate":"0","called_no":"0","location_name":"Clothing  Computer Programmer VN","service_provider_id":"9","location_accuracy":"17.0","usage_timeframe":"1666617479000","shape_id":0,"call_edate":"0","location_longitude":"35.507286"}, {"calling_no":"0","device_id":"e9713ecb-ca48-4e65-889b-6742c45dd27f","location_latitude":"33.82657","usage_date":"1666620771000","call_bdate":"0","called_no":"0","location_name":"Clothing  Computer Programmer VN","service_provider_id":"9","location_accuracy":"17.2","usage_timeframe":"1666620771000","shape_id":0,"call_edate":"0","location_longitude":"35.507286"}, {"calling_no":"0","device_id":"e9713ecb-ca48-4e65-889b-6742c45dd27f","location_latitude":"33.82657","usage_date":"1666623470000","call_bdate":"0","called_no":"0","location_name":"Clothing  Computer Programmer VN","service_provider_id":"9","location_accuracy":"17.0","usage_timeframe":"1666623470000","shape_id":0,"call_edate":"0","location_longitude":"35.507286"}, {"calling_no":"0","device_id":"e9713ecb-ca48-4e65-889b-6742c45dd27f","location_latitude":"33.82657","usage_date":"1666623868000","call_bdate":"0","called_no":"0","location_name":"Clothing  Computer Programmer VN","service_provider_id":"9","location_accuracy":"17.0","usage_timeframe":"1666623868000","shape_id":0,"call_edate":"0","location_longitude":"35.507286"}, {"calling_no":"0","device_id":"e9713ecb-ca48-4e65-889b-6742c45dd27f","location_latitude":"33.82657","usage_date":"1666624071000","call_bdate":"0","called_no":"0","location_name":"Clothing  Computer Programmer VN","service_provider_id":"9","location_accuracy":"17.2","usage_timeframe":"1666624071000","shape_id":0,"call_edate":"0","location_longitude":"35.507286"}, {"calling_no":"0","device_id":"e9713ecb-ca48-4e65-889b-6742c45dd27f","location_latitude":"33.82657","usage_date":"1666625270000","call_bdate":"0","called_no":"0","location_name":"Clothing  Computer Programmer VN","service_provider_id":"9","location_accuracy":"17.0","usage_timeframe":"1666625270000","shape_id":0,"call_edate":"0","location_longitude":"35.507286"}, {"calling_no":"0","device_id":"e9713ecb-ca48-4e65-889b-6742c45dd27f","location_latitude":"33.82656","usage_date":"1666628270000","call_bdate":"0","called_no":"0","location_name":"Clothing  Computer Programmer VN","service_provider_id":"9","location_accuracy":"17.0","usage_timeframe":"1666628270000","shape_id":0,"call_edate":"0","location_longitude":"35.50728"}, {"calling_no":"0","device_id":"e9713ecb-ca48-4e65-889b-6742c45dd27f","location_latitude":"33.82657","usage_date":"1666630670000","call_bdate":"0","called_no":"0","location_name":"Clothing  Computer Programmer VN","service_provider_id":"9","location_accuracy":"17.2","usage_timeframe":"1666630670000","shape_id":0,"call_edate":"0","location_longitude":"35.507286"}, {"calling_no":"0","device_id":"e9713ecb-ca48-4e65-889b-6742c45dd27f","location_latitude":"33.82657","usage_date":"1666639073000","call_bdate":"0","called_no":"0","location_name":"Clothing  Computer Programmer VN","service_provider_id":"9","location_accuracy":"17.0","usage_timeframe":"1666639073000","shape_id":0,"call_edate":"0","location_longitude":"35.507286"}, {"calling_no":"0","device_id":"e9713ecb-ca48-4e65-889b-6742c45dd27f","location_latitude":"33.82657","usage_date":"1666640878000","call_bdate":"0","called_no":"0","location_name":"Clothing  Computer Programmer VN","service_provider_id":"9","location_accuracy":"17.0","usage_timeframe":"1666640878000","shape_id":0,"call_edate":"0","location_longitude":"35.507286"}, {"calling_no":"0","device_id":"e9713ecb-ca48-4e65-889b-6742c45dd27f","location_latitude":"33.82657","usage_date":"1666687932000","call_bdate":"0","called_no":"0","location_name":"Clothing  Computer Programmer VN","service_provider_id":"9","location_accuracy":"17.0","usage_timeframe":"1666687932000","shape_id":0,"call_edate":"0","location_longitude":"35.507286"}, {"calling_no":"0","device_id":"e9713ecb-ca48-4e65-889b-6742c45dd27f","location_latitude":"33.82657","usage_date":"1666692173000","call_bdate":"0","called_no":"0","location_name":"Clothing  Computer Programmer VN","service_provider_id":"9","location_accuracy":"17.0","usage_timeframe":"1666692173000","shape_id":0,"call_edate":"0","location_longitude":"35.507286"}, {"calling_no":"0","device_id":"e9713ecb-ca48-4e65-889b-6742c45dd27f","location_latitude":"33.82656","usage_date":"1666706771000","call_bdate":"0","called_no":"0","location_name":"Clothing  Computer Programmer VN","service_provider_id":"9","location_accuracy":"17.0","usage_timeframe":"1666706771000","shape_id":0,"call_edate":"0","location_longitude":"35.50728"}, {"calling_no":"0","device_id":"e9713ecb-ca48-4e65-889b-6742c45dd27f","location_latitude":"33.82657","usage_date":"1666711317000","call_bdate":"0","called_no":"0","location_name":"Clothing  Computer Programmer VN","service_provider_id":"9","location_accuracy":"17.0","usage_timeframe":"1666711317000","shape_id":0,"call_edate":"0","location_longitude":"35.507286"}, {"calling_no":"0","device_id":"e9713ecb-ca48-4e65-889b-6742c45dd27f","location_latitude":"33.82657","usage_date":"1666738473000","call_bdate":"0","called_no":"0","location_name":"Clothing  Computer Programmer VN","service_provider_id":"9","location_accuracy":"17.0","usage_timeframe":"1666738473000","shape_id":0,"call_edate":"0","location_longitude":"35.507286"}, {"calling_no":"0","device_id":"e9713ecb-ca48-4e65-889b-6742c45dd27f","location_latitude":"33.82656","usage_date":"1666799993000","call_bdate":"0","called_no":"0","location_name":"Clothing  Computer Programmer VN","service_provider_id":"9","location_accuracy":"17.0","usage_timeframe":"1666799993000","shape_id":0,"call_edate":"0","location_longitude":"35.50728"}, {"calling_no":"0","device_id":"e9713ecb-ca48-4e65-889b-6742c45dd27f","location_latitude":"33.826614","usage_date":"1666800001000","call_bdate":"0","called_no":"0","location_name":"Clothing  Computer Programmer VN","service_provider_id":"9","location_accuracy":"18.0","usage_timeframe":"1666800001000","shape_id":0,"call_edate":"0","location_longitude":"35.507126"}, {"calling_no":"0","device_id":"e9713ecb-ca48-4e65-889b-6742c45dd27f","location_latitude":"33.826622","usage_date":"1666800663000","call_bdate":"0","called_no":"0","location_name":"Clothing  Computer Programmer VN","service_provider_id":"9","location_accuracy":"18.0","usage_timeframe":"1666800663000","shape_id":0,"call_edate":"0","location_longitude":"35.507137"}, {"calling_no":"0","device_id":"e9713ecb-ca48-4e65-889b-6742c45dd27f","location_latitude":"33.82662","usage_date":"1666800677000","call_bdate":"0","called_no":"0","location_name":"Clothing  Computer Programmer VN","service_provider_id":"9","location_accuracy":"18.0","usage_timeframe":"1666800677000","shape_id":0,"call_edate":"0","location_longitude":"35.50713"}, {"calling_no":"0","device_id":"e9713ecb-ca48-4e65-889b-6742c45dd27f","location_latitude":"33.82656","usage_date":"1666800852000","call_bdate":"0","called_no":"0","location_name":"Clothing  Computer Programmer VN","service_provider_id":"9","location_accuracy":"19.0","usage_timeframe":"1666800852000","shape_id":0,"call_edate":"0","location_longitude":"35.507236"}, {"calling_no":"0","device_id":"e9713ecb-ca48-4e65-889b-6742c45dd27f","location_latitude":"33.82656","usage_date":"1666807294000","call_bdate":"0","called_no":"0","location_name":"Clothing  Computer Programmer VN","service_provider_id":"9","location_accuracy":"19.0","usage_timeframe":"1666807294000","shape_id":0,"call_edate":"0","location_longitude":"35.50723"}, {"calling_no":"0","device_id":"e9713ecb-ca48-4e65-889b-6742c45dd27f","location_latitude":"33.82656","usage_date":"1666811705000","call_bdate":"0","called_no":"0","location_name":"Clothing  Computer Programmer VN","service_provider_id":"9","location_accuracy":"19.0","usage_timeframe":"1666811705000","shape_id":0,"call_edate":"0","location_longitude":"35.507236"}, {"calling_no":"0","device_id":"e9713ecb-ca48-4e65-889b-6742c45dd27f","location_latitude":"33.82656","usage_date":"1666825334000","call_bdate":"0","called_no":"0","location_name":"Clothing  Computer Programmer VN","service_provider_id":"9","location_accuracy":"19.0","usage_timeframe":"1666825334000","shape_id":0,"call_edate":"0","location_longitude":"35.507236"}, {"calling_no":"0","device_id":"e9713ecb-ca48-4e65-889b-6742c45dd27f","location_latitude":"33.82656","usage_date":"1666847815000","call_bdate":"0","called_no":"0","location_name":"Clothing  Computer Programmer VN","service_provider_id":"9","location_accuracy":"18.619","usage_timeframe":"1666847815000","shape_id":0,"call_edate":"0","location_longitude":"35.507236"}, {"calling_no":"0","device_id":"e9713ecb-ca48-4e65-889b-6742c45dd27f","location_latitude":"33.82656","usage_date":"1666879509000","call_bdate":"0","called_no":"0","location_name":"Clothing  Computer Programmer VN","service_provider_id":"9","location_accuracy":"19.0","usage_timeframe":"1666879509000","shape_id":0,"call_edate":"0","location_longitude":"35.50723"}, {"calling_no":"0","device_id":"e9713ecb-ca48-4e65-889b-6742c45dd27f","location_latitude":"33.82656","usage_date":"1666895626000","call_bdate":"0","called_no":"0","location_name":"Clothing  Computer Programmer VN","service_provider_id":"9","location_accuracy":"19.0","usage_timeframe":"1666895626000","shape_id":0,"call_edate":"0","location_longitude":"35.507236"}, {"calling_no":"0","device_id":"e9713ecb-ca48-4e65-889b-6742c45dd27f","location_latitude":"33.82656","usage_date":"1666897182000","call_bdate":"0","called_no":"0","location_name":"Clothing  Computer Programmer VN","service_provider_id":"9","location_accuracy":"18.619","usage_timeframe":"1666897182000","shape_id":0,"call_edate":"0","location_longitude":"35.507236"}, {"calling_no":"0","device_id":"e9713ecb-ca48-4e65-889b-6742c45dd27f","location_latitude":"33.82656","usage_date":"1667077375000","call_bdate":"0","called_no":"0","location_name":"Clothing  Computer Programmer VN","service_provider_id":"9","location_accuracy":"19.0","usage_timeframe":"1667077375000","shape_id":0,"call_edate":"0","location_longitude":"35.507236"}, {"calling_no":"0","device_id":"e9713ecb-ca48-4e65-889b-6742c45dd27f","location_latitude":"33.82656","usage_date":"1667077444000","call_bdate":"0","called_no":"0","location_name":"Clothing  Computer Programmer VN","service_provider_id":"9","location_accuracy":"19.0","usage_timeframe":"1667077444000","shape_id":0,"call_edate":"0","location_longitude":"35.507236"}, {"calling_no":"0","device_id":"e9713ecb-ca48-4e65-889b-6742c45dd27f","location_latitude":"33.82656","usage_date":"1667130553000","call_bdate":"0","called_no":"0","location_name":"Clothing  Computer Programmer VN","service_provider_id":"9","location_accuracy":"19.0","usage_timeframe":"1667130553000","shape_id":0,"call_edate":"0","location_longitude":"35.50723"}, {"calling_no":"0","device_id":"e9713ecb-ca48-4e65-889b-6742c45dd27f","location_latitude":"33.82656","usage_date":"1667150844000","call_bdate":"0","called_no":"0","location_name":"Clothing  Computer Programmer VN","service_provider_id":"9","location_accuracy":"19.0","usage_timeframe":"1667150844000","shape_id":0,"call_edate":"0","location_longitude":"35.507236"}, {"calling_no":"0","device_id":"e9713ecb-ca48-4e65-889b-6742c45dd27f","location_latitude":"33.82656","usage_date":"1667154415000","call_bdate":"0","called_no":"0","location_name":"Clothing  Computer Programmer VN","service_provider_id":"9","location_accuracy":"19.0","usage_timeframe":"1667154415000","shape_id":0,"call_edate":"0","location_longitude":"35.507236"}, {"calling_no":"0","device_id":"e9713ecb-ca48-4e65-889b-6742c45dd27f","location_latitude":"33.82656","usage_date":"1667219062000","call_bdate":"0","called_no":"0","location_name":"Clothing  Computer Programmer VN","service_provider_id":"9","location_accuracy":"18.619","usage_timeframe":"1667219062000","shape_id":0,"call_edate":"0","location_longitude":"35.507236"}, {"calling_no":"0","device_id":"e9713ecb-ca48-4e65-889b-6742c45dd27f","location_latitude":"33.82656","usage_date":"1667243064000","call_bdate":"0","called_no":"0","location_name":"Clothing  Computer Programmer VN","service_provider_id":"9","location_accuracy":"19.0","usage_timeframe":"1667243064000","shape_id":0,"call_edate":"0","location_longitude":"35.507236"}, {"calling_no":"0","device_id":"b7d89f02-9f02-8ee1-06d0-9ddf5c816869","location_latitude":"33.8246","usage_date":"1647624372000","call_bdate":"0","called_no":"0","location_name":"Alunimum Pharmacist BB","service_provider_id":"9","location_accuracy":"21.1","usage_timeframe":"1647624372000","shape_id":0,"call_edate":"0","location_longitude":"35.502975"}, {"calling_no":"0","device_id":"3148684c-fd92-4bcb-b958-0bedde94c462","location_latitude":"33.82970678","usage_date":"1642205939000","call_bdate":"0","called_no":"0","location_name":"Carol White FL","service_provider_id":"9","usage_timeframe":"1642205939000","shape_id":0,"usage_timeline":"1642205939000","call_edate":"0","location_longitude":"35.50231182"}, {"calling_no":"0","device_id":"3148684c-fd92-4bcb-b958-0bedde94c462","location_latitude":"33.82970678","usage_date":"1642210000000","call_bdate":"0","called_no":"0","location_name":"Carol White FL","service_provider_id":"9","usage_timeframe":"1642210000000","shape_id":0,"usage_timeline":"1642210000000","call_edate":"0","location_longitude":"35.50231182"}, {"calling_no":"0","device_id":"CD00076C-076C-52C7-CDCA-21942106697B","location_latitude":"33.824123","usage_date":"1647781348000","call_bdate":"0","called_no":"0","location_name":"Library  University PHD - Lecturer WF","service_provider_id":"9","location_accuracy":"13.7","usage_timeframe":"1647781348000","shape_id":0,"call_edate":"0","location_longitude":"35.503555"}, {"calling_no":"0","device_id":"35b6ea80-ea80-1a06-ad53-9c84e1f331e8","location_latitude":"33.825554","usage_date":"1647509657000","call_bdate":"0","called_no":"0","location_name":"Media Dentist AR","service_provider_id":"9","location_accuracy":"11.0","usage_timeframe":"1647509657000","shape_id":0,"call_edate":"0","location_longitude":"35.502636"}, {"calling_no":"0","device_id":"9498f8a3-e618-4c90-ade2-362679a721eb","location_latitude":"33.8249954","usage_date":"1647781989155","call_bdate":"0","called_no":"0","location_name":"Non-Durable  Computer Programmer BB","service_provider_id":"9","location_accuracy":"17.294","usage_timeframe":"1647781989155","shape_id":0,"call_edate":"0","location_longitude":"35.5058987"}, {"calling_no":"0","device_id":"9498f8a3-e618-4c90-ade2-362679a721eb","location_latitude":"33.8250033","usage_date":"1647782808811","call_bdate":"0","called_no":"0","location_name":"Non-Durable  Computer Programmer BB","service_provider_id":"9","location_accuracy":"26.847","usage_timeframe":"1647782808811","shape_id":0,"call_edate":"0","location_longitude":"35.5056855"}, {"calling_no":"0","device_id":"9498f8a3-e618-4c90-ade2-362679a721eb","location_latitude":"33.8249197","usage_date":"1647782810855","call_bdate":"0","called_no":"0","location_name":"Non-Durable  Computer Programmer BB","service_provider_id":"9","location_accuracy":"23.478","usage_timeframe":"1647782810855","shape_id":0,"call_edate":"0","location_longitude":"35.5058959"}, {"calling_no":"0","device_id":"9498f8a3-e618-4c90-ade2-362679a721eb","location_latitude":"33.8249363","usage_date":"1647782843213","call_bdate":"0","called_no":"0","location_name":"Non-Durable  Computer Programmer BB","service_provider_id":"9","location_accuracy":"14.293","usage_timeframe":"1647782843213","shape_id":0,"call_edate":"0","location_longitude":"35.5059429"}, {"calling_no":"0","device_id":"9498f8a3-e618-4c90-ade2-362679a721eb","location_latitude":"33.8247728","usage_date":"1647791461345","call_bdate":"0","called_no":"0","location_name":"Non-Durable  Computer Programmer BB","service_provider_id":"9","location_accuracy":"31.426","usage_timeframe":"1647791461345","shape_id":0,"call_edate":"0","location_longitude":"35.5058632"}, {"calling_no":"0","device_id":"9498f8a3-e618-4c90-ade2-362679a721eb","location_latitude":"33.8248196","usage_date":"1647791467325","call_bdate":"0","called_no":"0","location_name":"Non-Durable  Computer Programmer BB","service_provider_id":"9","location_accuracy":"14.566","usage_timeframe":"1647791467325","shape_id":0,"call_edate":"0","location_longitude":"35.5059623"}, {"calling_no":"0","device_id":"9498f8a3-e618-4c90-ade2-362679a721eb","location_latitude":"33.8248883","usage_date":"1647791477436","call_bdate":"0","called_no":"0","location_name":"Non-Durable  Computer Programmer BB","service_provider_id":"9","location_accuracy":"24.747","usage_timeframe":"1647791477436","shape_id":0,"call_edate":"0","location_longitude":"35.5059842"}, {"calling_no":"0","device_id":"9498f8a3-e618-4c90-ade2-362679a721eb","location_latitude":"33.8249192","usage_date":"1647796090294","call_bdate":"0","called_no":"0","location_name":"Non-Durable  Computer Programmer BB","service_provider_id":"9","location_accuracy":"16.589","usage_timeframe":"1647796090294","shape_id":0,"call_edate":"0","location_longitude":"35.505928"}, {"calling_no":"0","device_id":"9498f8a3-e618-4c90-ade2-362679a721eb","location_latitude":"33.8249244","usage_date":"1647796120678","call_bdate":"0","called_no":"0","location_name":"Non-Durable  Computer Programmer BB","service_provider_id":"9","location_accuracy":"9.483","usage_timeframe":"1647796120678","shape_id":0,"call_edate":"0","location_longitude":"35.5058991"}, {"calling_no":"0","device_id":"9498f8a3-e618-4c90-ade2-362679a721eb","location_latitude":"33.824867","usage_date":"1647796271169","call_bdate":"0","called_no":"0","location_name":"Non-Durable  Computer Programmer BB","service_provider_id":"9","location_accuracy":"17.216","usage_timeframe":"1647796271169","shape_id":0,"call_edate":"0","location_longitude":"35.5059444"}, {"calling_no":"0","device_id":"887d1b80-1b80-1010-db80-bd03ddc4c303","location_latitude":"33.828148","usage_date":"1646161521000","call_bdate":"0","called_no":"0","location_name":"Furnished  Producer WF","service_provider_id":"9","location_accuracy":"11.1","usage_timeframe":"1646161521000","shape_id":0,"call_edate":"0","location_longitude":"35.503082"}, {"calling_no":"0","device_id":"aeea12b6-12b6-9a69-f6ee-dab58dfc7660","location_latitude":"33.826157","usage_date":"1647534918000","call_bdate":"0","called_no":"0","location_name":"Metallic  Educational Guide WF","service_provider_id":"9","location_accuracy":"13.5","usage_timeframe":"1647534918000","shape_id":0,"call_edate":"0","location_longitude":"35.507511"}, {"calling_no":"0","device_id":"0676d415-d415-d802-50ad-d4563ac78f03","location_latitude":"33.826157","usage_date":"1647535385000","call_bdate":"0","called_no":"0","location_name":"Air  Plumber VN","service_provider_id":"9","location_accuracy":"10.5","usage_timeframe":"1647535385000","shape_id":0,"call_edate":"0","location_longitude":"35.507511"}, {"calling_no":"0","device_id":"4dc2de8c-de8c-75a5-b73d-f37039030d88","location_latitude":"33.825871","usage_date":"1647277791000","call_bdate":"0","called_no":"0","location_name":"Construction  Lawyer WF","service_provider_id":"9","location_accuracy":"11.5","usage_timeframe":"1647277791000","shape_id":0,"call_edate":"0","location_longitude":"35.506355"}, {"calling_no":"0","device_id":"352906115248538","location_latitude":"33.82844624","usage_date":"1641507452000","call_bdate":"0","called_no":"0","location_name":"96172249827","service_provider_id":"10","usage_timeframe":"1641507452000","shape_id":0,"usage_timeline":"1641507452000","call_edate":"0","location_longitude":"35.50280807"}, {"calling_no":"0","device_id":"352906115248538","location_latitude":"33.82711128","usage_date":"1643229057000","call_bdate":"0","called_no":"0","location_name":"96172249827","service_provider_id":"10","usage_timeframe":"1643229057000","shape_id":0,"usage_timeline":"1643229057000","call_edate":"0","location_longitude":"35.50767345"}, {"calling_no":"0","device_id":"352906115248538","location_latitude":"33.82853974","usage_date":"1644008681000","call_bdate":"0","called_no":"0","location_name":"96172249827","service_provider_id":"10","usage_timeframe":"1644008681000","shape_id":0,"usage_timeline":"1644008681000","call_edate":"0","location_longitude":"35.5054402"}, {"calling_no":"0","device_id":"352906115248538","location_latitude":"33.83020924","usage_date":"1644557330000","call_bdate":"0","called_no":"0","location_name":"96172249827","service_provider_id":"10","usage_timeframe":"1644557330000","shape_id":0,"usage_timeline":"1644557330000","call_edate":"0","location_longitude":"35.50535767"}, {"calling_no":"0","device_id":"352906115248538","location_latitude":"33.82893048","usage_date":"1645148754000","call_bdate":"0","called_no":"0","location_name":"96172249827","service_provider_id":"10","usage_timeframe":"1645148754000","shape_id":0,"usage_timeline":"1645148754000","call_edate":"0","location_longitude":"35.50527665"}, {"calling_no":"0","device_id":"352906115248538","location_latitude":"33.82830806","usage_date":"1646873882000","call_bdate":"0","called_no":"0","location_name":"96172249827","service_provider_id":"10","usage_timeframe":"1646873882000","shape_id":0,"usage_timeline":"1646873882000","call_edate":"0","location_longitude":"35.50082882"}, {"calling_no":"0","device_id":"352906115248538","location_latitude":"33.82781897","usage_date":"1647564334000","call_bdate":"0","called_no":"0","location_name":"96172249827","service_provider_id":"10","usage_timeframe":"1647564334000","shape_id":0,"usage_timeline":"1647564334000","call_edate":"0","location_longitude":"35.50789437"}, {"calling_no":"0","device_id":"352906115248538","location_latitude":"33.8276115","usage_date":"1647613169000","call_bdate":"0","called_no":"0","location_name":"96172249827","service_provider_id":"10","usage_timeframe":"1647613169000","shape_id":0,"usage_timeline":"1647613169000","call_edate":"0","location_longitude":"35.50668372"}, {"calling_no":"0","device_id":"352906115248538","location_latitude":"33.82861248","usage_date":"1647701798000","call_bdate":"0","called_no":"0","location_name":"96172249827","service_provider_id":"10","usage_timeframe":"1647701798000","shape_id":0,"usage_timeline":"1647701798000","call_edate":"0","location_longitude":"35.50644619"}, {"calling_no":"0","device_id":"352906115248538","location_latitude":"33.82970014","usage_date":"1649196004000","call_bdate":"0","called_no":"0","location_name":"96172249827","service_provider_id":"10","usage_timeframe":"1649196004000","shape_id":0,"usage_timeline":"1649196004000","call_edate":"0","location_longitude":"35.50190625"}, {"calling_no":"0","device_id":"352906115248538","location_latitude":"33.82828848","usage_date":"1650149528000","call_bdate":"0","called_no":"0","location_name":"96172249827","service_provider_id":"10","usage_timeframe":"1650149528000","shape_id":0,"usage_timeline":"1650149528000","call_edate":"0","location_longitude":"35.50074983"}, {"calling_no":"0","device_id":"352906115248538","location_latitude":"33.82821305","usage_date":"1650258877000","call_bdate":"0","called_no":"0","location_name":"96172249827","service_provider_id":"10","usage_timeframe":"1650258877000","shape_id":0,"usage_timeline":"1650258877000","call_edate":"0","location_longitude":"35.50206176"}, {"calling_no":"0","device_id":"352906115248538","location_latitude":"33.82963416","usage_date":"1650533589000","call_bdate":"0","called_no":"0","location_name":"96172249827","service_provider_id":"10","usage_timeframe":"1650533589000","shape_id":0,"usage_timeline":"1650533589000","call_edate":"0","location_longitude":"35.50535103"}, {"calling_no":"0","device_id":"352906115248538","location_latitude":"33.83046242","usage_date":"1650802829000","call_bdate":"0","called_no":"0","location_name":"96172249827","service_provider_id":"10","usage_timeframe":"1650802829000","shape_id":0,"usage_timeline":"1650802829000","call_edate":"0","location_longitude":"35.50413652"}, {"calling_no":"0","device_id":"352906115248538","location_latitude":"33.83017315","usage_date":"1652279458000","call_bdate":"0","called_no":"0","location_name":"96172249827","service_provider_id":"10","usage_timeframe":"1652279458000","shape_id":0,"usage_timeline":"1652279458000","call_edate":"0","location_longitude":"35.5042267"}, {"calling_no":"0","device_id":"352906115248538","location_latitude":"33.82938927","usage_date":"1655062712000","call_bdate":"0","called_no":"0","location_name":"96172249827","service_provider_id":"10","usage_timeframe":"1655062712000","shape_id":0,"usage_timeline":"1655062712000","call_edate":"0","location_longitude":"35.50141112"}, {"calling_no":"0","device_id":"352906115248538","location_latitude":"33.82918496","usage_date":"1656039687000","call_bdate":"0","called_no":"0","location_name":"96172249827","service_provider_id":"10","usage_timeframe":"1656039687000","shape_id":0,"usage_timeline":"1656039687000","call_edate":"0","location_longitude":"35.50700958"}, {"calling_no":"0","device_id":"352906115248538","location_latitude":"33.83048452","usage_date":"1657434783000","call_bdate":"0","called_no":"0","location_name":"96172249827","service_provider_id":"10","usage_timeframe":"1657434783000","shape_id":0,"usage_timeline":"1657434783000","call_edate":"0","location_longitude":"35.50444431"}, {"calling_no":"0","device_id":"352906115248538","location_latitude":"33.82789048","usage_date":"1658110019000","call_bdate":"0","called_no":"0","location_name":"96172249827","service_provider_id":"10","usage_timeframe":"1658110019000","shape_id":0,"usage_timeline":"1658110019000","call_edate":"0","location_longitude":"35.50645418"}, {"calling_no":"0","device_id":"352906115248538","location_latitude":"33.82814852","usage_date":"1659010255000","call_bdate":"0","called_no":"0","location_name":"96172249827","service_provider_id":"10","usage_timeframe":"1659010255000","shape_id":0,"usage_timeline":"1659010255000","call_edate":"0","location_longitude":"35.50186761"}, {"calling_no":"0","device_id":"352906115248538","location_latitude":"33.82867802","usage_date":"1659450941000","call_bdate":"0","called_no":"0","location_name":"96172249827","service_provider_id":"10","usage_timeframe":"1659450941000","shape_id":0,"usage_timeline":"1659450941000","call_edate":"0","location_longitude":"35.50242983"}, {"calling_no":"0","device_id":"352906115248538","location_latitude":"33.83036325","usage_date":"1660750450000","call_bdate":"0","called_no":"0","location_name":"96172249827","service_provider_id":"10","usage_timeframe":"1660750450000","shape_id":0,"usage_timeline":"1660750450000","call_edate":"0","location_longitude":"35.50491419"}, {"calling_no":"0","device_id":"352906115248538","location_latitude":"33.82739183","usage_date":"1660998370000","call_bdate":"0","called_no":"0","location_name":"96172249827","service_provider_id":"10","usage_timeframe":"1660998370000","shape_id":0,"usage_timeline":"1660998370000","call_edate":"0","location_longitude":"35.50587116"}, {"calling_no":"0","device_id":"352906115248538","location_latitude":"33.82964008","usage_date":"1661418060000","call_bdate":"0","called_no":"0","location_name":"96172249827","service_provider_id":"10","usage_timeframe":"1661418060000","shape_id":0,"usage_timeline":"1661418060000","call_edate":"0","location_longitude":"35.50310426"}, {"calling_no":"0","device_id":"352906115248538","location_latitude":"33.82942643","usage_date":"1661657138000","call_bdate":"0","called_no":"0","location_name":"96172249827","service_provider_id":"10","usage_timeframe":"1661657138000","shape_id":0,"usage_timeline":"1661657138000","call_edate":"0","location_longitude":"35.50607257"}, {"calling_no":"0","device_id":"352906115248538","location_latitude":"33.82773408","usage_date":"1662525213000","call_bdate":"0","called_no":"0","location_name":"96172249827","service_provider_id":"10","usage_timeframe":"1662525213000","shape_id":0,"usage_timeline":"1662525213000","call_edate":"0","location_longitude":"35.50691498"}, {"calling_no":"0","device_id":"352906115248538","location_latitude":"33.82814644","usage_date":"1662999123000","call_bdate":"0","called_no":"0","location_name":"96172249827","service_provider_id":"10","usage_timeframe":"1662999123000","shape_id":0,"usage_timeline":"1662999123000","call_edate":"0","location_longitude":"35.50710594"}, {"calling_no":"0","device_id":"352906115248538","location_latitude":"33.82772986","usage_date":"1665214939000","call_bdate":"0","called_no":"0","location_name":"96172249827","service_provider_id":"10","usage_timeframe":"1665214939000","shape_id":0,"usage_timeline":"1665214939000","call_edate":"0","location_longitude":"35.50576781"}, {"calling_no":"0","device_id":"352906115248538","location_latitude":"33.82725286","usage_date":"1666862756000","call_bdate":"0","called_no":"0","location_name":"96172249827","service_provider_id":"10","usage_timeframe":"1666862756000","shape_id":0,"usage_timeline":"1666862756000","call_edate":"0","location_longitude":"35.50715574"}, {"calling_no":"0","device_id":"352906115248538","location_latitude":"33.82865124","usage_date":"1666910761000","call_bdate":"0","called_no":"0","location_name":"96172249827","service_provider_id":"10","usage_timeframe":"1666910761000","shape_id":0,"usage_timeline":"1666910761000","call_edate":"0","location_longitude":"35.50383561"}, {"calling_no":"0","device_id":"352906115248538","location_latitude":"33.82888246","usage_date":"1667639295000","call_bdate":"0","called_no":"0","location_name":"96172249827","service_provider_id":"10","usage_timeframe":"1667639295000","shape_id":0,"usage_timeline":"1667639295000","call_edate":"0","location_longitude":"35.50098136"}, {"calling_no":"0","device_id":"352906115248538","location_latitude":"33.82861875","usage_date":"1667929236000","call_bdate":"0","called_no":"0","location_name":"96172249827","service_provider_id":"10","usage_timeframe":"1667929236000","shape_id":0,"usage_timeline":"1667929236000","call_edate":"0","location_longitude":"35.50727825"}, {"calling_no":"0","device_id":"352906115248538","location_latitude":"33.82928255","usage_date":"1668451564000","call_bdate":"0","called_no":"0","location_name":"96172249827","service_provider_id":"10","usage_timeframe":"1668451564000","shape_id":0,"usage_timeline":"1668451564000","call_edate":"0","location_longitude":"35.50495902"}, {"calling_no":"0","device_id":"352906115248538","location_latitude":"33.83030046","usage_date":"1669537106000","call_bdate":"0","called_no":"0","location_name":"96172249827","service_provider_id":"10","usage_timeframe":"1669537106000","shape_id":0,"usage_timeline":"1669537106000","call_edate":"0","location_longitude":"35.50442941"}, {"calling_no":"0","device_id":"352906115248538","location_latitude":"33.82888728","usage_date":"1669539074000","call_bdate":"0","called_no":"0","location_name":"96172249827","service_provider_id":"10","usage_timeframe":"1669539074000","shape_id":0,"usage_timeline":"1669539074000","call_edate":"0","location_longitude":"35.50163456"}, {"calling_no":"0","device_id":"352906115248538","location_latitude":"33.82863236","usage_date":"1669767621000","call_bdate":"0","called_no":"0","location_name":"96172249827","service_provider_id":"10","usage_timeframe":"1669767621000","shape_id":0,"usage_timeline":"1669767621000","call_edate":"0","location_longitude":"35.50109195"}, {"calling_no":"0","device_id":"352906115248538","location_latitude":"33.82888931","usage_date":"1670194058000","call_bdate":"0","called_no":"0","location_name":"96172249827","service_provider_id":"10","usage_timeframe":"1670194058000","shape_id":0,"usage_timeline":"1670194058000","call_edate":"0","location_longitude":"35.50313648"},