[[{"called_no":"0","calling_no":"0","service_provider_id":"5","device_id":"fd6954ff-c2d7-414a-b4be-873777961080","location_accuracy":"24.5","usage_timeframe":"1664633092000","location_latitude":"33.898685","shape_id":0,"usage_date":"1664633092000","call_bdate":"0","location_longitude":"35.477955","call_edate":"0"}, {"calling_no":"0","device_id":"fd6954ff-c2d7-414a-b4be-873777961080","location_latitude":"33.898685","usage_date":"1664633092000","call_bdate":"0","called_no":"0","location_name":"Jewellery  Bartender AR","service_provider_id":"9","location_accuracy":"24.5","usage_timeframe":"1664633092000","shape_id":0,"location_longitude":"35.477955","call_edate":"0"}, {"calling_no":"0","device_id":"fd6954ff-c2d7-414a-b4be-873777961080","location_latitude":"33.898617","usage_date":"1667143928000","call_bdate":"0","called_no":"0","location_name":"Jewellery  Bartender AR","service_provider_id":"9","location_accuracy":"11.0","usage_timeframe":"1667143928000","shape_id":0,"location_longitude":"35.4779","call_edate":"0"}, {"calling_no":"0","device_id":"cb3ae74e-e74e-b152-9fd5-63caa43a40b7","location_latitude":"33.89849472","usage_date":"1647342403000","call_bdate":"0","called_no":"0","location_name":"Speculators Advertising IL","service_provider_id":"9","location_accuracy":"13.5","usage_timeframe":"1647342403000","shape_id":0,"location_longitude":"35.4779129","call_edate":"0"}, {"called_no":"0","calling_no":"0","service_provider_id":"5","device_id":"0F75733F-9801-4F03-8ECC-4D74FCE321BF","location_accuracy":"22.0","usage_timeframe":"1664885395000","location_latitude":"33.89866","shape_id":0,"usage_date":"1664885395000","call_bdate":"0","location_longitude":"35.47808","call_edate":"0"}, {"called_no":"0","calling_no":"0","service_provider_id":"5","device_id":"0F75733F-9801-4F03-8ECC-4D74FCE321BF","location_accuracy":"22.0","usage_timeframe":"1665058038000","location_latitude":"33.898684","shape_id":0,"usage_date":"1665058038000","call_bdate":"0","location_longitude":"35.478186","call_edate":"0"}, {"called_no":"0","calling_no":"0","service_provider_id":"5","device_id":"0F75733F-9801-4F03-8ECC-4D74FCE321BF","location_accuracy":"22.0","usage_timeframe":"1665058044000","location_latitude":"33.89861","shape_id":0,"usage_date":"1665058044000","call_bdate":"0","location_longitude":"35.477886","call_edate":"0"}, {"calling_no":"0","device_id":"0F75733F-9801-4F03-8ECC-4D74FCE321BF","location_latitude":"33.89866","usage_date":"1664885395000","call_bdate":"0","called_no":"0","location_name":"Other  Journalist AT","service_provider_id":"9","location_accuracy":"22.0","usage_timeframe":"1664885395000","shape_id":0,"location_longitude":"35.47808","call_edate":"0"}, {"calling_no":"0","device_id":"0F75733F-9801-4F03-8ECC-4D74FCE321BF","location_latitude":"33.898684","usage_date":"1665058038000","call_bdate":"0","called_no":"0","location_name":"Other  Journalist AT","service_provider_id":"9","location_accuracy":"22.0","usage_timeframe":"1665058038000","shape_id":0,"location_longitude":"35.478186","call_edate":"0"}, {"calling_no":"0","device_id":"0F75733F-9801-4F03-8ECC-4D74FCE321BF","location_latitude":"33.89861","usage_date":"1665058044000","call_bdate":"0","called_no":"0","location_name":"Other  Journalist AT","service_provider_id":"9","location_accuracy":"22.0","usage_timeframe":"1665058044000","shape_id":0,"location_longitude":"35.477886","call_edate":"0"}, {"calling_no":"0","device_id":"a31bbcc2-4f5e-49f7-90a3-9ebfbd5e0ef6","location_latitude":"33.8988084","usage_date":"1646365050581","call_bdate":"0","called_no":"0","location_name":"Cultural  Butcher BB","service_provider_id":"9","location_accuracy":"17.315","usage_timeframe":"1646365050581","shape_id":0,"location_longitude":"35.4779986","call_edate":"0"}, {"calling_no":"0","device_id":"c1ef8d7b-a274-4749-8e45-65ce8b982c9e","location_latitude":"33.89878","usage_date":"1665739396000","call_bdate":"0","called_no":"0","location_name":"Health  Electrician BB","service_provider_id":"9","location_accuracy":"13.0","usage_timeframe":"1665739396000","shape_id":0,"location_longitude":"35.47837","call_edate":"0"}, {"calling_no":"0","device_id":"c1ef8d7b-a274-4749-8e45-65ce8b982c9e","location_latitude":"33.89877","usage_date":"1665739406000","call_bdate":"0","called_no":"0","location_name":"Health  Electrician BB","service_provider_id":"9","location_accuracy":"13.0","usage_timeframe":"1665739406000","shape_id":0,"location_longitude":"35.47838","call_edate":"0"}, {"calling_no":"0","device_id":"2FC597F9-97F9-E686-C3F2-F6A42929A2D9","location_latitude":"33.89849472","usage_date":"1647535914000","call_bdate":"0","called_no":"0","location_name":"Mattresses  Secretary UY","service_provider_id":"9","location_accuracy":"11.7","usage_timeframe":"1647535914000","shape_id":0,"location_longitude":"35.4779129","call_edate":"0"}, {"calling_no":"0","device_id":"2FC597F9-97F9-E686-C3F2-F6A42929A2D9","location_latitude":"33.89849472","usage_date":"1647617875000","call_bdate":"0","called_no":"0","location_name":"Mattresses  Secretary UY","service_provider_id":"9","location_accuracy":"11.7","usage_timeframe":"1647617875000","shape_id":0,"location_longitude":"35.4779129","call_edate":"0"}, {"calling_no":"0","device_id":"654805B4-7189-42E2-BEF2-3965B01D0FFC","location_latitude":"33.898733","usage_date":"1646610458000","call_bdate":"0","called_no":"0","location_name":"Automated  Travel agency IL","service_provider_id":"9","location_accuracy":"14.4242","usage_timeframe":"1646610458000","shape_id":0,"location_longitude":"35.478546","call_edate":"0"}, {"calling_no":"0","device_id":"654805B4-7189-42E2-BEF2-3965B01D0FFC","location_latitude":"33.898733","usage_date":"1647013876000","call_bdate":"0","called_no":"0","location_name":"Automated  Travel agency IL","service_provider_id":"9","location_accuracy":"14.4118","usage_timeframe":"1647013876000","shape_id":0,"location_longitude":"35.478546","call_edate":"0"}, {"calling_no":"0","device_id":"ca755b4b-3f1e-4df8-a9e1-411d9ddeeac7","location_latitude":"33.89875","usage_date":"1666787244000","call_bdate":"0","called_no":"0","location_name":"Institutions  Entrepreneur AR","service_provider_id":"9","location_accuracy":"14.0","usage_timeframe":"1666787244000","shape_id":0,"location_longitude":"35.47845","call_edate":"0"}, {"calling_no":"0","device_id":"ca755b4b-3f1e-4df8-a9e1-411d9ddeeac7","location_latitude":"33.898666","usage_date":"1666787251000","call_bdate":"0","called_no":"0","location_name":"Institutions  Entrepreneur AR","service_provider_id":"9","location_accuracy":"14.0","usage_timeframe":"1666787251000","shape_id":0,"location_longitude":"35.478095","call_edate":"0"}, {"calling_no":"0","device_id":"ca755b4b-3f1e-4df8-a9e1-411d9ddeeac7","location_latitude":"33.898768","usage_date":"1666948395000","call_bdate":"0","called_no":"0","location_name":"Institutions  Entrepreneur AR","service_provider_id":"9","location_accuracy":"10.0","usage_timeframe":"1666948395000","shape_id":0,"location_longitude":"35.478281","call_edate":"0"}, {"calling_no":"0","device_id":"ca755b4b-3f1e-4df8-a9e1-411d9ddeeac7","location_latitude":"33.89861","usage_date":"1666948399000","call_bdate":"0","called_no":"0","location_name":"Institutions  Entrepreneur AR","service_provider_id":"9","location_accuracy":"11.0","usage_timeframe":"1666948399000","shape_id":0,"location_longitude":"35.47806","call_edate":"0"}, {"calling_no":"0","device_id":"ca755b4b-3f1e-4df8-a9e1-411d9ddeeac7","location_latitude":"33.89862","usage_date":"1666948409000","call_bdate":"0","called_no":"0","location_name":"Institutions  Entrepreneur AR","service_provider_id":"9","location_accuracy":"11.0","usage_timeframe":"1666948409000","shape_id":0,"location_longitude":"35.47805","call_edate":"0"}, {"calling_no":"0","device_id":"CD2BD713-A67C-4E84-8FB1-CC5C55FD76A5","location_latitude":"33.8985","usage_date":"1666604318000","call_bdate":"0","called_no":"0","location_name":"Touristic  Courier BB","service_provider_id":"9","location_accuracy":"35.0","usage_timeframe":"1666604318000","shape_id":0,"location_longitude":"35.47793","call_edate":"0"}, {"calling_no":"0","device_id":"CD2BD713-A67C-4E84-8FB1-CC5C55FD76A5","location_latitude":"33.89850809","usage_date":"1666604328000","call_bdate":"0","called_no":"0","location_name":"Touristic  Courier BB","service_provider_id":"9","location_accuracy":"35.0","usage_timeframe":"1666604328000","shape_id":0,"location_longitude":"35.47794375","call_edate":"0"}, {"calling_no":"0","device_id":"F8776400-C7D1-42E2-94FE-81DD36C4F82F","location_latitude":"33.89875","usage_date":"1666438595000","call_bdate":"0","called_no":"0","location_name":"Non-Govermental  Exception IL","service_provider_id":"9","location_accuracy":"14.0","usage_timeframe":"1666438595000","shape_id":0,"location_longitude":"35.47807","call_edate":"0"}, {"calling_no":"0","device_id":"F8776400-C7D1-42E2-94FE-81DD36C4F82F","location_latitude":"33.89876","usage_date":"1666438600000","call_bdate":"0","called_no":"0","location_name":"Non-Govermental  Exception IL","service_provider_id":"9","location_accuracy":"14.0","usage_timeframe":"1666438600000","shape_id":0,"location_longitude":"35.47808","call_edate":"0"}, {"called_no":"0","calling_no":"0","service_provider_id":"5","device_id":"8C435A3C-7D42-486B-9B90-F07B5B9A17F4","location_accuracy":"18.0","usage_timeframe":"1664640547000","location_latitude":"33.898649","shape_id":0,"usage_date":"1664640547000","call_bdate":"0","location_longitude":"35.478374","call_edate":"0"}, {"calling_no":"0","device_id":"8C435A3C-7D42-486B-9B90-F07B5B9A17F4","location_latitude":"33.898649","usage_date":"1664640547000","call_bdate":"0","called_no":"0","location_name":"Pharmaceuticals Journalist AT","service_provider_id":"9","location_accuracy":"18.0","usage_timeframe":"1664640547000","shape_id":0,"location_longitude":"35.478374","call_edate":"0"}, {"called_no":"0","calling_no":"0","service_provider_id":"5","device_id":"40A744C2-5D88-4724-919B-CEE58669E982","location_accuracy":"16.0","usage_timeframe":"1664880488000","location_latitude":"33.89874","shape_id":0,"usage_date":"1664880488000","call_bdate":"0","location_longitude":"35.47805","call_edate":"0"}, {"called_no":"0","calling_no":"0","service_provider_id":"5","device_id":"40A744C2-5D88-4724-919B-CEE58669E982","location_accuracy":"23.0","usage_timeframe":"1664880522000","location_latitude":"33.898697","shape_id":0,"usage_date":"1664880522000","call_bdate":"0","location_longitude":"35.47834","call_edate":"0"}, {"called_no":"0","calling_no":"0","service_provider_id":"5","device_id":"40A744C2-5D88-4724-919B-CEE58669E982","location_accuracy":"16.0","usage_timeframe":"1664880538000","location_latitude":"33.89873","shape_id":0,"usage_date":"1664880538000","call_bdate":"0","location_longitude":"35.47806","call_edate":"0"}, {"calling_no":"0","device_id":"40A744C2-5D88-4724-919B-CEE58669E982","location_latitude":"33.89874","usage_date":"1664880488000","call_bdate":"0","called_no":"0","location_name":"Newspapers  Electrician BB","service_provider_id":"9","location_accuracy":"16.0","usage_timeframe":"1664880488000","shape_id":0,"location_longitude":"35.47805","call_edate":"0"}, {"calling_no":"0","device_id":"40A744C2-5D88-4724-919B-CEE58669E982","location_latitude":"33.898697","usage_date":"1664880522000","call_bdate":"0","called_no":"0","location_name":"Newspapers  Electrician BB","service_provider_id":"9","location_accuracy":"23.0","usage_timeframe":"1664880522000","shape_id":0,"location_longitude":"35.47834","call_edate":"0"}, {"calling_no":"0","device_id":"40A744C2-5D88-4724-919B-CEE58669E982","location_latitude":"33.89873","usage_date":"1664880538000","call_bdate":"0","called_no":"0","location_name":"Newspapers  Electrician BB","service_provider_id":"9","location_accuracy":"16.0","usage_timeframe":"1664880538000","shape_id":0,"location_longitude":"35.47806","call_edate":"0"}, {"calling_no":"0","device_id":"40A744C2-5D88-4724-919B-CEE58669E982","location_latitude":"33.8988","usage_date":"1665942486000","call_bdate":"0","called_no":"0","location_name":"Newspapers  Electrician BB","service_provider_id":"9","location_accuracy":"16.0","usage_timeframe":"1665942486000","shape_id":0,"location_longitude":"35.47819","call_edate":"0"}, {"calling_no":"0","device_id":"40A744C2-5D88-4724-919B-CEE58669E982","location_latitude":"33.89881","usage_date":"1665942536000","call_bdate":"0","called_no":"0","location_name":"Newspapers  Electrician BB","service_provider_id":"9","location_accuracy":"16.0","usage_timeframe":"1665942536000","shape_id":0,"location_longitude":"35.478195","call_edate":"0"}, {"calling_no":"0","device_id":"40A744C2-5D88-4724-919B-CEE58669E982","location_latitude":"33.89873","usage_date":"1665944766000","call_bdate":"0","called_no":"0","location_name":"Newspapers  Electrician BB","service_provider_id":"9","location_accuracy":"14.0","usage_timeframe":"1665944766000","shape_id":0,"location_longitude":"35.47819","call_edate":"0"}, {"calling_no":"0","device_id":"40A744C2-5D88-4724-919B-CEE58669E982","location_latitude":"33.89874","usage_date":"1665944816000","call_bdate":"0","called_no":"0","location_name":"Newspapers  Electrician BB","service_provider_id":"9","location_accuracy":"14.0","usage_timeframe":"1665944816000","shape_id":0,"location_longitude":"35.47819","call_edate":"0"}, {"calling_no":"0","device_id":"40A744C2-5D88-4724-919B-CEE58669E982","location_latitude":"33.89878","usage_date":"1665945385000","call_bdate":"0","called_no":"0","location_name":"Newspapers  Electrician BB","service_provider_id":"9","location_accuracy":"14.0","usage_timeframe":"1665945385000","shape_id":0,"location_longitude":"35.4782","call_edate":"0"}, {"calling_no":"0","device_id":"40A744C2-5D88-4724-919B-CEE58669E982","location_latitude":"33.89879","usage_date":"1665947649000","call_bdate":"0","called_no":"0","location_name":"Newspapers  Electrician BB","service_provider_id":"9","location_accuracy":"14.0","usage_timeframe":"1665947649000","shape_id":0,"location_longitude":"35.478054","call_edate":"0"}, {"calling_no":"0","device_id":"40A744C2-5D88-4724-919B-CEE58669E982","location_latitude":"33.89865","usage_date":"1665998476000","call_bdate":"0","called_no":"0","location_name":"Newspapers  Electrician BB","service_provider_id":"9","location_accuracy":"15.0","usage_timeframe":"1665998476000","shape_id":0,"location_longitude":"35.47802","call_edate":"0"}, {"calling_no":"0","device_id":"40A744C2-5D88-4724-919B-CEE58669E982","location_latitude":"33.898792","usage_date":"1666099191000","call_bdate":"0","called_no":"0","location_name":"Newspapers  Electrician BB","service_provider_id":"9","location_accuracy":"15.0","usage_timeframe":"1666099191000","shape_id":0,"location_longitude":"35.478504","call_edate":"0"}, {"calling_no":"0","device_id":"40A744C2-5D88-4724-919B-CEE58669E982","location_latitude":"33.89875","usage_date":"1667043928000","call_bdate":"0","called_no":"0","location_name":"Newspapers  Electrician BB","service_provider_id":"9","location_accuracy":"14.0","usage_timeframe":"1667043928000","shape_id":0,"location_longitude":"35.47838","call_edate":"0"}, {"calling_no":"0","device_id":"40A744C2-5D88-4724-919B-CEE58669E982","location_latitude":"33.898763","usage_date":"1667043960000","call_bdate":"0","called_no":"0","location_name":"Newspapers  Electrician BB","service_provider_id":"9","location_accuracy":"14.0","usage_timeframe":"1667043960000","shape_id":0,"location_longitude":"35.47822","call_edate":"0"}, {"calling_no":"0","device_id":"40A744C2-5D88-4724-919B-CEE58669E982","location_latitude":"33.89873","usage_date":"1667044008000","call_bdate":"0","called_no":"0","location_name":"Newspapers  Electrician BB","service_provider_id":"9","location_accuracy":"14.0","usage_timeframe":"1667044008000","shape_id":0,"location_longitude":"35.477985","call_edate":"0"}, {"calling_no":"0","device_id":"40A744C2-5D88-4724-919B-CEE58669E982","location_latitude":"33.89868","usage_date":"1667223361000","call_bdate":"0","called_no":"0","location_name":"Newspapers  Electrician BB","service_provider_id":"9","location_accuracy":"14.0","usage_timeframe":"1667223361000","shape_id":0,"location_longitude":"35.47809","call_edate":"0"}, {"calling_no":"0","device_id":"40A744C2-5D88-4724-919B-CEE58669E982","location_latitude":"33.89869","usage_date":"1667223365000","call_bdate":"0","called_no":"0","location_name":"Newspapers  Electrician BB","service_provider_id":"9","location_accuracy":"14.0","usage_timeframe":"1667223365000","shape_id":0,"location_longitude":"35.47815","call_edate":"0"}, {"calling_no":"0","device_id":"40A744C2-5D88-4724-919B-CEE58669E982","location_latitude":"33.898697","usage_date":"1667223410000","call_bdate":"0","called_no":"0","location_name":"Newspapers  Electrician BB","service_provider_id":"9","location_accuracy":"14.0","usage_timeframe":"1667223410000","shape_id":0,"location_longitude":"35.478162","call_edate":"0"}, {"calling_no":"0","device_id":"40A744C2-5D88-4724-919B-CEE58669E982","location_latitude":"33.89867","usage_date":"1667223412000","call_bdate":"0","called_no":"0","location_name":"Newspapers  Electrician BB","service_provider_id":"9","location_accuracy":"14.0","usage_timeframe":"1667223412000","shape_id":0,"location_longitude":"35.47809","call_edate":"0"}, {"calling_no":"0","device_id":"de6562ee-62ee-ac86-f9a2-7a6bb5faf3c2","location_latitude":"33.8984947","usage_date":"1646572022000","call_bdate":"0","called_no":"0","location_name":"Auxiliary  Legal expert AR","service_provider_id":"9","location_accuracy":"15.0","usage_timeframe":"1646572022000","shape_id":0,"location_longitude":"35.4779129","call_edate":"0"}, {"calling_no":"0","device_id":"de6562ee-62ee-ac86-f9a2-7a6bb5faf3c2","location_latitude":"33.898495","usage_date":"1646590181000","call_bdate":"0","called_no":"0","location_name":"Auxiliary  Legal expert AR","service_provider_id":"9","location_accuracy":"15.0","usage_timeframe":"1646590181000","shape_id":0,"location_longitude":"35.477913","call_edate":"0"}, {"calling_no":"0","device_id":"de6562ee-62ee-ac86-f9a2-7a6bb5faf3c2","location_latitude":"33.8984947","usage_date":"1646757901000","call_bdate":"0","called_no":"0","location_name":"Auxiliary  Legal expert AR","service_provider_id":"9","location_accuracy":"13.0","usage_timeframe":"1646757901000","shape_id":0,"location_longitude":"35.4779129","call_edate":"0"}, {"called_no":"0","calling_no":"0","service_provider_id":"5","device_id":"5821117E-78AF-4E6D-965C-33F868C00F9C","location_accuracy":"21.0","usage_timeframe":"1664976030000","location_latitude":"33.898763","shape_id":0,"usage_date":"1664976030000","call_bdate":"0","location_longitude":"35.478191","call_edate":"0"}, {"called_no":"0","calling_no":"0","service_provider_id":"5","device_id":"5821117E-78AF-4E6D-965C-33F868C00F9C","location_accuracy":"21.0","usage_timeframe":"1664976045000","location_latitude":"33.89875","shape_id":0,"usage_date":"1664976045000","call_bdate":"0","location_longitude":"35.47819","call_edate":"0"}, {"calling_no":"0","device_id":"5821117E-78AF-4E6D-965C-33F868C00F9C","location_latitude":"33.898763","usage_date":"1664976030000","call_bdate":"0","called_no":"0","location_name":"Casual  Counselor IL","service_provider_id":"9","location_accuracy":"21.0","usage_timeframe":"1664976030000","shape_id":0,"location_longitude":"35.478191","call_edate":"0"}, {"calling_no":"0","device_id":"5821117E-78AF-4E6D-965C-33F868C00F9C","location_latitude":"33.89875","usage_date":"1664976045000","call_bdate":"0","called_no":"0","location_name":"Casual  Counselor IL","service_provider_id":"9","location_accuracy":"21.0","usage_timeframe":"1664976045000","shape_id":0,"location_longitude":"35.47819","call_edate":"0"}, {"calling_no":"0","device_id":"D43D1EA2-0677-476B-AAC6-81E9F6622A6E","location_latitude":"33.89858571","usage_date":"1648585687629","call_bdate":"0","called_no":"0","location_name":"Nonwoven  financial consultant BB","service_provider_id":"9","location_accuracy":"0.0","usage_timeframe":"1648585687629","shape_id":0,"location_longitude":"35.47796852","call_edate":"0"}, {"calling_no":"0","device_id":"D43D1EA2-0677-476B-AAC6-81E9F6622A6E","location_latitude":"33.89858245","usage_date":"1648586511425","call_bdate":"0","called_no":"0","location_name":"Nonwoven  financial consultant BB","service_provider_id":"9","location_accuracy":"0.0","usage_timeframe":"1648586511425","shape_id":0,"location_longitude":"35.47801208","call_edate":"0"}, {"calling_no":"0","device_id":"D43D1EA2-0677-476B-AAC6-81E9F6622A6E","location_latitude":"33.89858245","usage_date":"1648587900048","call_bdate":"0","called_no":"0","location_name":"Nonwoven  financial consultant BB","service_provider_id":"9","location_accuracy":"0.0","usage_timeframe":"1648587900048","shape_id":0,"location_longitude":"35.47801208","call_edate":"0"}, {"calling_no":"0","device_id":"D43D1EA2-0677-476B-AAC6-81E9F6622A6E","location_latitude":"33.89858245","usage_date":"1648592751757","call_bdate":"0","called_no":"0","location_name":"Nonwoven  financial consultant BB","service_provider_id":"9","location_accuracy":"0.0","usage_timeframe":"1648592751757","shape_id":0,"location_longitude":"35.47801208","call_edate":"0"}, {"calling_no":"0","device_id":"D43D1EA2-0677-476B-AAC6-81E9F6622A6E","location_latitude":"33.89857396","usage_date":"1648621094833","call_bdate":"0","called_no":"0","location_name":"Nonwoven  financial consultant BB","service_provider_id":"9","location_accuracy":"0.0","usage_timeframe":"1648621094833","shape_id":0,"location_longitude":"35.47802591","call_edate":"0"}, {"calling_no":"0","device_id":"D43D1EA2-0677-476B-AAC6-81E9F6622A6E","location_latitude":"33.89849078","usage_date":"1648672839825","call_bdate":"0","called_no":"0","location_name":"Nonwoven  financial consultant BB","service_provider_id":"9","location_accuracy":"0.0","usage_timeframe":"1648672839825","shape_id":0,"location_longitude":"35.47816274","call_edate":"0"}, {"calling_no":"0","device_id":"ea508b90-e80b-435c-a681-77fe8be3b58d","location_latitude":"33.898742","usage_date":"1666185005000","call_bdate":"0","called_no":"0","location_name":"Wood  Civil Engineer WF","service_provider_id":"9","location_accuracy":"3.0","usage_timeframe":"1666185005000","shape_id":0,"location_longitude":"35.478165","call_edate":"0"}, {"calling_no":"0","device_id":"ea508b90-e80b-435c-a681-77fe8be3b58d","location_latitude":"33.89873","usage_date":"1666185050000","call_bdate":"0","called_no":"0","location_name":"Wood  Civil Engineer WF","service_provider_id":"9","location_accuracy":"3.0","usage_timeframe":"1666185050000","shape_id":0,"location_longitude":"35.47815","call_edate":"0"}, {"calling_no":"0","device_id":"0f47207d-58ab-4499-b43c-557f9644ba66","location_latitude":"33.898796","usage_date":"1667144001000","call_bdate":"0","called_no":"0","location_name":"Soaps Security Forces IL","service_provider_id":"9","location_accuracy":"13.734","usage_timeframe":"1667144001000","shape_id":0,"location_longitude":"35.478374","call_edate":"0"}, {"calling_no":"0","device_id":"0f47207d-58ab-4499-b43c-557f9644ba66","location_latitude":"33.89879","usage_date":"1667144125000","call_bdate":"0","called_no":"0","location_name":"Soaps Security Forces IL","service_provider_id":"9","location_accuracy":"13.155","usage_timeframe":"1667144125000","shape_id":0,"location_longitude":"35.478477","call_edate":"0"}, {"calling_no":"0","device_id":"0f47207d-58ab-4499-b43c-557f9644ba66","location_latitude":"33.89879","usage_date":"1667145690000","call_bdate":"0","called_no":"0","location_name":"Soaps Security Forces IL","service_provider_id":"9","location_accuracy":"13.155","usage_timeframe":"1667145690000","shape_id":0,"location_longitude":"35.478477","call_edate":"0"}, {"calling_no":"0","device_id":"0f47207d-58ab-4499-b43c-557f9644ba66","location_latitude":"33.89879","usage_date":"1667148330000","call_bdate":"0","called_no":"0","location_name":"Soaps Security Forces IL","service_provider_id":"9","location_accuracy":"13.155","usage_timeframe":"1667148330000","shape_id":0,"location_longitude":"35.478477","call_edate":"0"}, {"calling_no":"0","device_id":"0f47207d-58ab-4499-b43c-557f9644ba66","location_latitude":"33.89879","usage_date":"1667149210000","call_bdate":"0","called_no":"0","location_name":"Soaps Security Forces IL","service_provider_id":"9","location_accuracy":"13.155","usage_timeframe":"1667149210000","shape_id":0,"location_longitude":"35.478477","call_edate":"0"}, {"calling_no":"0","device_id":"18DF27A0-27A0-C7BA-1C45-B450C5A99390","location_latitude":"33.89849472","usage_date":"1647710347000","call_bdate":"0","called_no":"0","location_name":"Textile Military BJ","service_provider_id":"9","location_accuracy":"9.9","usage_timeframe":"1647710347000","shape_id":0,"location_longitude":"35.4779129","call_edate":"0"}, {"called_no":"0","calling_no":"0","service_provider_id":"5","device_id":"2EE2109F-76F0-4473-B7CB-6E779EDC2977","location_accuracy":"32.0","usage_timeframe":"1664877744000","location_latitude":"33.898783","shape_id":0,"usage_date":"1664877744000","call_bdate":"0","location_longitude":"35.478226","call_edate":"0"}, {"calling_no":"0","device_id":"2EE2109F-76F0-4473-B7CB-6E779EDC2977","location_latitude":"33.898783","usage_date":"1664877744000","call_bdate":"0","called_no":"0","location_name":"Resorts  Journalist AT","service_provider_id":"9","location_accuracy":"32.0","usage_timeframe":"1664877744000","shape_id":0,"location_longitude":"35.478226","call_edate":"0"}, {"called_no":"0","calling_no":"0","service_provider_id":"5","device_id":"b9780d06-1b23-4a76-b3dc-af6eecca088e","location_accuracy":"10.72","usage_timeframe":"1664801371000","location_latitude":"33.89867","shape_id":0,"usage_date":"1664801371000","call_bdate":"0","location_longitude":"35.47802","call_edate":"0"}, {"called_no":"0","calling_no":"0","service_provider_id":"5","device_id":"b9780d06-1b23-4a76-b3dc-af6eecca088e","location_accuracy":"10.72","usage_timeframe":"1664801382000","location_latitude":"33.89868","shape_id":0,"usage_date":"1664801382000","call_bdate":"0","location_longitude":"35.478012","call_edate":"0"}, {"calling_no":"0","device_id":"b9780d06-1b23-4a76-b3dc-af6eecca088e","location_latitude":"33.89867","usage_date":"1664801371000","call_bdate":"0","called_no":"0","location_name":"Furniture Electrical Engineer VN","service_provider_id":"9","location_accuracy":"10.72","usage_timeframe":"1664801371000","shape_id":0,"location_longitude":"35.47802","call_edate":"0"}, {"calling_no":"0","device_id":"b9780d06-1b23-4a76-b3dc-af6eecca088e","location_latitude":"33.89868","usage_date":"1664801382000","call_bdate":"0","called_no":"0","location_name":"Furniture Electrical Engineer VN","service_provider_id":"9","location_accuracy":"10.72","usage_timeframe":"1664801382000","shape_id":0,"location_longitude":"35.478012","call_edate":"0"}, {"calling_no":"0","device_id":"FC0AB733-03C4-43F9-972B-06B7B588D9B4","location_latitude":"33.898572","usage_date":"1666085932000","call_bdate":"0","called_no":"0","location_name":"Abattoires","service_provider_id":"9","location_accuracy":"16.0","usage_timeframe":"1666085932000","shape_id":0,"location_longitude":"35.477882","call_edate":"0"}],[]]